[{"name":"Aba","country":"Nigeria","lat":5.1167,"lon":7.3667},{"name":"Abaete","country":"Brazil","lat":-19.1583,"lon":-45.4522},{"name":"Abeokuta","country":"Nigeria","lat":7.15,"lon":3.35},{"name":"Abidjan","country":"Côte d'Ivoire","lat":5.3364,"lon":-4.0267},{"name":"Abu Dhabi","country":"United Arab Emirates","lat":24.4511,"lon":54.3969},{"name":"Abuja","country":"Nigeria","lat":9.0556,"lon":7.4914},{"name":"Acapulco de Juarez","country":"Mexico","lat":16.8636,"lon":-99.8825},{"name":"Accra","country":"Ghana","lat":5.6037,"lon":-0.187},{"name":"Ad Dammam","country":"Saudi Arabia","lat":26.4333,"lon":50.1},{"name":"Adachi","country":"Japan","lat":35.7833,"lon":139.8},{"name":"Addis Ababa","country":"Ethiopia","lat":9.0272,"lon":38.7369},{"name":"Adelaide","country":"Australia","lat":-34.9275,"lon":138.6},{"name":"Aden","country":"Yemen","lat":12.8,"lon":45.0333},{"name":"Agartala","country":"India","lat":23.8333,"lon":91.2667},{"name":"Agra","country":"India","lat":27.1724,"lon":78.0131},{"name":"Aguascalientes","country":"Mexico","lat":21.876,"lon":-102.296},{"name":"Ahmedabad","country":"India","lat":23.03,"lon":72.58},{"name":"Ahvaz","country":"Iran","lat":31.3203,"lon":48.6692},{"name":"Ailan Mubage","country":"China","lat":43.9167,"lon":81.3167},{"name":"Ajmer","country":"India","lat":26.468,"lon":74.639},{"name":"Akron","country":"United States","lat":41.0798,"lon":-81.5219},{"name":"Aksu","country":"China","lat":41.1664,"lon":80.25},{"name":"Akure","country":"Nigeria","lat":7.25,"lon":5.195},{"name":"Al `Amarah","country":"Iraq","lat":31.8333,"lon":47.15},{"name":"Al `Ayn","country":"United Arab Emirates","lat":24.2075,"lon":55.7447},{"name":"Al Basrah","country":"Iraq","lat":30.515,"lon":47.81},{"name":"Al Hillah","country":"Iraq","lat":32.4833,"lon":44.4333},{"name":"Al Hillah","country":"Saudi Arabia","lat":23.4895,"lon":46.7564},{"name":"Al Hudaydah","country":"Yemen","lat":14.8022,"lon":42.9511},{"name":"Al Hufuf","country":"Saudi Arabia","lat":25.3608,"lon":49.5997},{"name":"Al Mansurah","country":"Egypt","lat":31.05,"lon":31.3833},{"name":"Albany","country":"United States","lat":42.6664,"lon":-73.7987},{"name":"Albuquerque","country":"United States","lat":35.1053,"lon":-106.6464},{"name":"Aleppo","country":"Syria","lat":36.2,"lon":37.15},{"name":"Alexandria","country":"Egypt","lat":31.2,"lon":29.9167},{"name":"Algiers","country":"Algeria","lat":36.7764,"lon":3.0586},{"name":"Aligarh","country":"India","lat":27.88,"lon":78.08},{"name":"Allahabad","country":"India","lat":25.45,"lon":81.85},{"name":"Allentown","country":"United States","lat":40.5961,"lon":-75.4756},{"name":"Almaty","country":"Kazakhstan","lat":43.25,"lon":76.9},{"name":"Amman","country":"Jordan","lat":31.95,"lon":35.9333},{"name":"Amravati","country":"India","lat":20.9333,"lon":77.75},{"name":"Amritsar","country":"India","lat":31.6269,"lon":74.877},{"name":"Amsterdam","country":"Netherlands","lat":52.3667,"lon":4.8833},{"name":"An Najaf","country":"Iraq","lat":32.029,"lon":44.3396},{"name":"An Nasiriyah","country":"Iraq","lat":31.0439,"lon":46.2575},{"name":"Ananindeua","country":"Brazil","lat":-1.3658,"lon":-48.3719},{"name":"Anda","country":"China","lat":46.4078,"lon":125.3252},{"name":"Ankang","country":"China","lat":32.6877,"lon":109.0235},{"name":"Anlu","country":"China","lat":31.2575,"lon":113.6783},{"name":"Anqing","country":"China","lat":30.5,"lon":117.0333},{"name":"Anqiu","country":"China","lat":36.3619,"lon":119.1072},{"name":"Ansan","country":"South Korea","lat":37.3236,"lon":126.8219},{"name":"Anshan","country":"China","lat":41.1066,"lon":122.9895},{"name":"Anshun","country":"China","lat":26.2456,"lon":105.934},{"name":"Antananarivo","country":"Madagascar","lat":-18.9386,"lon":47.5214},{"name":"Antipolo","country":"Philippines","lat":14.5842,"lon":121.1763},{"name":"Antwerp","country":"Belgium","lat":51.2211,"lon":4.3997},{"name":"Anyang","country":"South Korea","lat":37.3925,"lon":126.9269},{"name":"Ar Ramadi","country":"Iraq","lat":33.4258,"lon":43.2992},{"name":"Aracaju","country":"Brazil","lat":-10.9167,"lon":-37.05},{"name":"Arak","country":"Iran","lat":34.08,"lon":49.7},{"name":"Ardabil","country":"Iran","lat":38.25,"lon":48.3},{"name":"Arequipa","country":"Peru","lat":-16.3988,"lon":-71.5369},{"name":"As Sulaymaniyah","country":"Iraq","lat":35.55,"lon":45.4333},{"name":"Asansol","country":"India","lat":23.6833,"lon":86.9667},{"name":"Asmara","country":"Eritrea","lat":15.3333,"lon":38.9167},{"name":"Astrakhan","country":"Russia","lat":46.3333,"lon":48.0167},{"name":"Asuncion","country":"Paraguay","lat":-25.3,"lon":-57.6333},{"name":"At Ta'if","country":"Saudi Arabia","lat":21.2667,"lon":40.4167},{"name":"Athens","country":"Greece","lat":37.9842,"lon":23.7281},{"name":"Atlanta","country":"United States","lat":33.7627,"lon":-84.4224},{"name":"Auckland","country":"New Zealand","lat":-36.85,"lon":174.7833},{"name":"Aurangabad","country":"India","lat":19.88,"lon":75.32},{"name":"Austin","country":"United States","lat":30.3004,"lon":-97.7522},{"name":"Bac Ninh","country":"Vietnam","lat":21.1861,"lon":106.0763},{"name":"Bacolod","country":"Philippines","lat":10.6765,"lon":122.9509},{"name":"Bacoor","country":"Philippines","lat":14.4624,"lon":120.9645},{"name":"Bagam","country":"Indonesia","lat":1.0678,"lon":104.0167},{"name":"Bagcilar","country":"Turkey","lat":41.0406,"lon":28.8261},{"name":"Baghdad","country":"Iraq","lat":33.35,"lon":44.4167},{"name":"Bahar","country":"Iran","lat":34.9069,"lon":48.4414},{"name":"Bahawalpur","country":"Pakistan","lat":29.3956,"lon":71.6722},{"name":"Baicheng","country":"China","lat":23.901,"lon":106.6194},{"name":"Baishan","country":"China","lat":41.9377,"lon":126.4179},{"name":"Baiyin","country":"China","lat":36.5448,"lon":104.1766},{"name":"Bakersfield","country":"United States","lat":35.3529,"lon":-119.0359},{"name":"Baku","country":"Azerbaijan","lat":40.3667,"lon":49.8352},{"name":"Balikpapan","country":"Indonesia","lat":-1.1489,"lon":116.9031},{"name":"Baltimore","country":"United States","lat":39.3051,"lon":-76.6144},{"name":"Bamako","country":"Mali","lat":12.6458,"lon":-7.9922},{"name":"Bandar `Abbas","country":"Iran","lat":27.2,"lon":56.25},{"name":"Bandar Lampung","country":"Indonesia","lat":-5.4294,"lon":105.2625},{"name":"Bandung","country":"Indonesia","lat":-6.95,"lon":107.5667},{"name":"Bangalore","country":"India","lat":12.9791,"lon":77.5913},{"name":"Bangkok","country":"Thailand","lat":13.75,"lon":100.5167},{"name":"Bangui","country":"Central African Republic","lat":4.3732,"lon":18.5628},{"name":"Banjarmasin","country":"Indonesia","lat":-3.319,"lon":114.5921},{"name":"Baoding","country":"China","lat":38.8671,"lon":115.4845},{"name":"Baojishi","country":"China","lat":34.3609,"lon":107.1751},{"name":"Baoshan","country":"China","lat":25.1211,"lon":99.169},{"name":"Baotou","country":"China","lat":40.6562,"lon":109.8345},{"name":"Barcelona","country":"Spain","lat":41.3825,"lon":2.1769},{"name":"Bareilly","country":"India","lat":28.364,"lon":79.415},{"name":"Barnaul","country":"Russia","lat":53.3567,"lon":83.7872},{"name":"Barquisimeto","country":"Venezuela","lat":10.0678,"lon":-69.3467},{"name":"Barranquilla","country":"Colombia","lat":10.9639,"lon":-74.7964},{"name":"Baton Rouge","country":"United States","lat":30.4418,"lon":-91.131},{"name":"Bauchi","country":"Nigeria","lat":10.3158,"lon":9.8442},{"name":"Bazhou","country":"China","lat":31.8576,"lon":106.7559},{"name":"Beidao","country":"China","lat":34.602,"lon":105.918},{"name":"Beihai","country":"China","lat":21.4667,"lon":109.1},{"name":"Beijing","country":"China","lat":39.904,"lon":116.4075},{"name":"Beining","country":"China","lat":41.5961,"lon":121.7928},{"name":"Bekasi","country":"Indonesia","lat":-6.2333,"lon":107.0},{"name":"Belas","country":"Angola","lat":-9.0689,"lon":13.1608},{"name":"Belem","country":"Brazil","lat":-1.4558,"lon":-48.5039},{"name":"Belgrade","country":"Serbia","lat":44.8167,"lon":20.4667},{"name":"Belo Horizonte","country":"Brazil","lat":-19.9281,"lon":-43.9419},{"name":"Bengbu","country":"China","lat":32.9354,"lon":117.3531},{"name":"Benghazi","country":"Libya","lat":32.1167,"lon":20.0667},{"name":"Benguela","country":"Angola","lat":-12.55,"lon":13.4167},{"name":"Benin City","country":"Nigeria","lat":6.3176,"lon":5.6145},{"name":"Benxi","country":"China","lat":41.292,"lon":123.761},{"name":"Berlin","country":"Germany","lat":52.5167,"lon":13.3833},{"name":"Bezwada","country":"India","lat":16.5167,"lon":80.6167},{"name":"Bhavnagar","country":"India","lat":21.765,"lon":72.1369},{"name":"Bhilai","country":"India","lat":21.2186,"lon":81.4314},{"name":"Bhiwandi","country":"India","lat":19.3,"lon":73.0667},{"name":"Bhopal","country":"India","lat":23.25,"lon":77.4167},{"name":"Bhubaneshwar","country":"India","lat":20.2644,"lon":85.8281},{"name":"Bien Hoa","country":"Vietnam","lat":10.9508,"lon":106.8221},{"name":"Bijie","country":"China","lat":27.3019,"lon":105.2863},{"name":"Bikaner","country":"India","lat":28.0181,"lon":73.3169},{"name":"Bilaspur","country":"India","lat":22.15,"lon":82.0167},{"name":"Binzhou","country":"China","lat":37.3806,"lon":118.0125},{"name":"Birmingham","country":"United Kingdom","lat":52.48,"lon":-1.9025},{"name":"Birmingham","country":"United States","lat":33.5277,"lon":-86.7987},{"name":"Bishkek","country":"Kyrgyzstan","lat":42.8667,"lon":74.5667},{"name":"Blantyre","country":"Malawi","lat":-15.7861,"lon":35.0058},{"name":"Bobo-Dioulasso","country":"Burkina Faso","lat":11.1833,"lon":-4.2833},{"name":"Bogor","country":"Indonesia","lat":-6.5917,"lon":106.8},{"name":"Bogota","country":"Colombia","lat":4.6126,"lon":-74.0705},{"name":"Boston","country":"United States","lat":42.3188,"lon":-71.0846},{"name":"Botou","country":"China","lat":38.074,"lon":116.57},{"name":"Bouake","country":"Côte d'Ivoire","lat":7.6833,"lon":-5.0331},{"name":"Bozhou","country":"China","lat":33.8626,"lon":115.7742},{"name":"Brampton","country":"Canada","lat":43.6833,"lon":-79.7667},{"name":"Brasilia","country":"Brazil","lat":-15.7939,"lon":-47.8828},{"name":"Brazzaville","country":"Congo (Brazzaville)","lat":-4.2667,"lon":15.2833},{"name":"Bremen","country":"Germany","lat":53.0769,"lon":8.8089},{"name":"Bridgeport","country":"United States","lat":41.1918,"lon":-73.1953},{"name":"Brisbane","country":"Australia","lat":-27.4678,"lon":153.0281},{"name":"Bristol","country":"United Kingdom","lat":51.45,"lon":-2.5833},{"name":"Bronx","country":"United States","lat":40.8501,"lon":-73.8662},{"name":"Brooklyn","country":"United States","lat":40.6501,"lon":-73.9496},{"name":"Brussels","country":"Belgium","lat":50.8353,"lon":4.3314},{"name":"Bucaramanga","country":"Colombia","lat":7.1186,"lon":-73.1161},{"name":"Bucharest","country":"Romania","lat":44.4,"lon":26.0833},{"name":"Bucheon","country":"South Korea","lat":37.4989,"lon":126.7831},{"name":"Budapest","country":"Hungary","lat":47.4983,"lon":19.0408},{"name":"Buenos Aires","country":"Argentina","lat":-34.5997,"lon":-58.3819},{"name":"Buffalo","country":"United States","lat":42.9016,"lon":-78.8487},{"name":"Bujumbura","country":"Burundi","lat":-3.3825,"lon":29.3611},{"name":"Bulawayo","country":"Zimbabwe","lat":-20.1667,"lon":28.5667},{"name":"Busan","country":"South Korea","lat":35.1,"lon":129.0403},{"name":"Butterworth","country":"Malaysia","lat":5.3992,"lon":100.3639},{"name":"Cabinda","country":"Angola","lat":-5.5667,"lon":12.2},{"name":"Cacuaco","country":"Angola","lat":-8.7833,"lon":13.3667},{"name":"Cagayan de Oro","country":"Philippines","lat":8.4833,"lon":124.65},{"name":"Cairo","country":"Egypt","lat":30.0444,"lon":31.2358},{"name":"Calgary","country":"Canada","lat":51.05,"lon":-114.0667},{"name":"Cali","country":"Colombia","lat":3.44,"lon":-76.5197},{"name":"Callao","country":"Peru","lat":-12.0611,"lon":-77.1333},{"name":"Caloocan City","country":"Philippines","lat":14.65,"lon":120.9667},{"name":"Campinas","country":"Brazil","lat":-22.9009,"lon":-47.0573},{"name":"Campo Grande","country":"Brazil","lat":-20.4686,"lon":-54.6222},{"name":"Can Tho","country":"Vietnam","lat":10.0333,"lon":105.7833},{"name":"Cancun","country":"Mexico","lat":21.1606,"lon":-86.8475},{"name":"Cangzhou","country":"China","lat":38.3037,"lon":116.8452},{"name":"Cape Coral","country":"United States","lat":26.6446,"lon":-81.9956},{"name":"Caracas","country":"Venezuela","lat":10.5,"lon":-66.9333},{"name":"Carrefour","country":"Haiti","lat":18.5333,"lon":-72.4},{"name":"Cartagena","country":"Colombia","lat":10.4236,"lon":-75.5253},{"name":"Casablanca","country":"Morocco","lat":33.5992,"lon":-7.62},{"name":"Catia La Mar","country":"Venezuela","lat":10.6038,"lon":-67.0303},{"name":"Cawnpore","country":"India","lat":26.4725,"lon":80.3311},{"name":"Cebu City","country":"Philippines","lat":10.293,"lon":123.902},{"name":"Cencheng","country":"China","lat":22.9297,"lon":111.0186},{"name":"Ch'onan","country":"South Korea","lat":36.8064,"lon":127.1522},{"name":"Ch'ongjin","country":"North Korea","lat":41.8,"lon":129.7831},{"name":"Chanda","country":"India","lat":19.95,"lon":79.3},{"name":"Chandigarh","country":"India","lat":30.7353,"lon":76.7911},{"name":"Chang'an","country":"China","lat":29.4761,"lon":113.448},{"name":"Changchun","country":"China","lat":43.9,"lon":125.2},{"name":"Changde","country":"China","lat":29.0397,"lon":111.6839},{"name":"Changhua","country":"Taiwan","lat":24.0667,"lon":120.5333},{"name":"Changping","country":"China","lat":40.2248,"lon":116.1944},{"name":"Changsha","country":"China","lat":28.1987,"lon":112.9709},{"name":"Changshu","country":"China","lat":31.65,"lon":120.7333},{"name":"Changwon","country":"South Korea","lat":35.2281,"lon":128.6811},{"name":"Changzhi","country":"China","lat":36.1953,"lon":113.097},{"name":"Changzhou","country":"China","lat":31.8122,"lon":119.9692},{"name":"Chaohucun","country":"China","lat":31.6783,"lon":117.7353},{"name":"Chaoyang","country":"China","lat":41.5757,"lon":120.4486},{"name":"Chaozhou","country":"China","lat":23.67,"lon":116.63},{"name":"Charleston","country":"United States","lat":32.8153,"lon":-79.9628},{"name":"Charlotte","country":"United States","lat":35.208,"lon":-80.8304},{"name":"Chattogram","country":"Bangladesh","lat":22.335,"lon":91.8325},{"name":"Chelyabinsk","country":"Russia","lat":55.15,"lon":61.4},{"name":"Chengde","country":"China","lat":40.9739,"lon":117.9322},{"name":"Chengdu","country":"China","lat":30.66,"lon":104.0633},{"name":"Chengguan","country":"China","lat":35.5256,"lon":113.6976},{"name":"Chengtangcun","country":"China","lat":35.0833,"lon":117.15},{"name":"Chengxiang","country":"China","lat":31.4515,"lon":121.1043},{"name":"Chennai","country":"India","lat":13.0825,"lon":80.275},{"name":"Chenzhou","country":"China","lat":25.7989,"lon":113.0267},{"name":"Cheongju","country":"South Korea","lat":36.6372,"lon":127.4897},{"name":"Chiba","country":"Japan","lat":35.6073,"lon":140.1064},{"name":"Chicago","country":"United States","lat":41.8373,"lon":-87.6862},{"name":"Chiclayo","country":"Peru","lat":-6.763,"lon":-79.8366},{"name":"Chifeng","country":"China","lat":42.2663,"lon":118.9223},{"name":"Chihuahua","country":"Mexico","lat":28.6353,"lon":-106.0889},{"name":"Chimalhuacan","country":"Mexico","lat":19.4167,"lon":-98.9},{"name":"Chisinau","country":"Moldova","lat":47.0228,"lon":28.8353},{"name":"Chizhou","country":"China","lat":30.6583,"lon":117.4849},{"name":"Choloma","country":"Honduras","lat":15.6333,"lon":-88.0},{"name":"Chongqing","country":"China","lat":29.55,"lon":106.5069},{"name":"Chongzuo","country":"China","lat":22.4167,"lon":107.3667},{"name":"Chuxiong","country":"China","lat":25.0461,"lon":101.5436},{"name":"Chuzhou","country":"China","lat":32.3062,"lon":118.3115},{"name":"Cilacap","country":"Indonesia","lat":-7.7167,"lon":109.017},{"name":"Cimahi","country":"Indonesia","lat":-6.8833,"lon":107.5333},{"name":"Cincinnati","country":"United States","lat":39.1413,"lon":-84.5061},{"name":"City of Calamba","country":"Philippines","lat":14.2167,"lon":121.1667},{"name":"City of Paranaque","country":"Philippines","lat":14.4667,"lon":121.0167},{"name":"Ciudad Apodaca","country":"Mexico","lat":25.7833,"lon":-100.1833},{"name":"Ciudad Bolivar","country":"Venezuela","lat":8.1167,"lon":-63.55},{"name":"Ciudad Guayana","country":"Venezuela","lat":8.3596,"lon":-62.6517},{"name":"Ciudad Nezahualcoyotl","country":"Mexico","lat":19.41,"lon":-99.03},{"name":"Cleveland","country":"United States","lat":41.4767,"lon":-81.6804},{"name":"Cochabamba","country":"Bolivia","lat":-17.3935,"lon":-66.157},{"name":"Coimbatore","country":"India","lat":11.0,"lon":76.9667},{"name":"Cologne","country":"Germany","lat":50.9422,"lon":6.9578},{"name":"Colombo","country":"Sri Lanka","lat":6.9167,"lon":79.8333},{"name":"Colorado Springs","country":"United States","lat":38.8674,"lon":-104.7606},{"name":"Columbia","country":"United States","lat":34.0376,"lon":-80.9037},{"name":"Columbus","country":"United States","lat":39.9862,"lon":-82.985},{"name":"Comayaguela","country":"Honduras","lat":14.0833,"lon":-87.2167},{"name":"Comodoro Rivadavia","country":"Argentina","lat":-45.8667,"lon":-67.5},{"name":"Conakry","country":"Guinea","lat":9.538,"lon":-13.6773},{"name":"Concord","country":"United States","lat":37.9722,"lon":-122.0016},{"name":"Contagem","country":"Brazil","lat":-19.9319,"lon":-44.0539},{"name":"Copenhagen","country":"Denmark","lat":55.6805,"lon":12.5615},{"name":"Cordoba","country":"Argentina","lat":-31.4167,"lon":-64.1833},{"name":"Cotonou","country":"Benin","lat":6.402,"lon":2.518},{"name":"Cucuta","country":"Colombia","lat":7.9075,"lon":-72.5047},{"name":"Cuiaba","country":"Brazil","lat":-15.5958,"lon":-56.0969},{"name":"Culiacan","country":"Mexico","lat":24.8069,"lon":-107.3939},{"name":"Curitiba","country":"Brazil","lat":-25.4297,"lon":-49.2719},{"name":"Cuttack","country":"India","lat":20.465,"lon":85.8793},{"name":"Dadukou","country":"China","lat":26.5849,"lon":101.7149},{"name":"Daegu","country":"South Korea","lat":35.8667,"lon":128.6},{"name":"Daejeon","country":"South Korea","lat":36.351,"lon":127.385},{"name":"Dakar","country":"Senegal","lat":14.7319,"lon":-17.4572},{"name":"Dali","country":"China","lat":25.7003,"lon":100.1564},{"name":"Dalian","country":"China","lat":38.9,"lon":121.6},{"name":"Dallas","country":"United States","lat":32.7936,"lon":-96.7662},{"name":"Damascus","country":"Syria","lat":33.5131,"lon":36.2919},{"name":"Dandong","country":"China","lat":40.1167,"lon":124.3833},{"name":"Dangyang","country":"China","lat":30.8258,"lon":111.791},{"name":"Danyang","country":"China","lat":31.9948,"lon":119.575},{"name":"Daqing","country":"China","lat":46.5979,"lon":125.008},{"name":"Dar es Salaam","country":"Tanzania","lat":-6.8,"lon":39.2833},{"name":"Dashiqiao","country":"China","lat":40.6328,"lon":122.5021},{"name":"Dasmarinas","country":"Philippines","lat":14.3294,"lon":120.9367},{"name":"Davangere","country":"India","lat":14.4667,"lon":75.9167},{"name":"Davao","country":"Philippines","lat":7.0667,"lon":125.6},{"name":"Dayan","country":"China","lat":26.8808,"lon":100.2208},{"name":"Daye","country":"China","lat":30.1003,"lon":114.9699},{"name":"Dayton","country":"United States","lat":39.7797,"lon":-84.1998},{"name":"Dazhou","country":"China","lat":31.2152,"lon":107.4947},{"name":"Dehra Dun","country":"India","lat":30.318,"lon":78.029},{"name":"Dehui","country":"China","lat":44.5323,"lon":125.6965},{"name":"Delhi","country":"India","lat":28.6667,"lon":77.2167},{"name":"Dengtalu","country":"China","lat":36.0819,"lon":114.3481},{"name":"Denpasar","country":"Indonesia","lat":-8.6667,"lon":115.2167},{"name":"Denver","country":"United States","lat":39.7621,"lon":-104.8759},{"name":"Depok","country":"Indonesia","lat":-6.394,"lon":106.8225},{"name":"Detroit","country":"United States","lat":42.3834,"lon":-83.1024},{"name":"Deyang","country":"China","lat":31.1289,"lon":104.395},{"name":"Dezhou","country":"China","lat":37.4513,"lon":116.3105},{"name":"Dhaka","country":"Bangladesh","lat":23.7289,"lon":90.3944},{"name":"Dhanbad","country":"India","lat":23.7928,"lon":86.435},{"name":"Dingxi","country":"China","lat":35.5806,"lon":104.6263},{"name":"Dingzhou","country":"China","lat":38.5158,"lon":114.9845},{"name":"Djibouti","country":"Djibouti","lat":11.595,"lon":43.1481},{"name":"Dnipro","country":"Ukraine","lat":48.4675,"lon":35.04},{"name":"Doha","country":"Qatar","lat":25.3,"lon":51.5333},{"name":"Donetsk","country":"Ukraine","lat":48.0089,"lon":37.8042},{"name":"Dongguan","country":"China","lat":23.0475,"lon":113.7493},{"name":"Dongtai","country":"China","lat":32.8534,"lon":120.3037},{"name":"Dortmund","country":"Germany","lat":51.5139,"lon":7.4653},{"name":"Douala","country":"Cameroon","lat":4.05,"lon":9.7},{"name":"Dresden","country":"Germany","lat":51.05,"lon":13.74},{"name":"Dubai","country":"United Arab Emirates","lat":25.2697,"lon":55.3094},{"name":"Dublin","country":"Ireland","lat":53.3497,"lon":-6.2603},{"name":"Durango","country":"Mexico","lat":24.0167,"lon":-104.6667},{"name":"Durban","country":"South Africa","lat":-29.8583,"lon":31.025},{"name":"Durgapur","country":"India","lat":23.55,"lon":87.32},{"name":"Dushanbe","country":"Tajikistan","lat":38.5731,"lon":68.7864},{"name":"Dusseldorf","country":"Germany","lat":51.2311,"lon":6.7724},{"name":"Ecatepec","country":"Mexico","lat":19.6097,"lon":-99.06},{"name":"Edmonton","country":"Canada","lat":53.5344,"lon":-113.4903},{"name":"Edogawa","country":"Japan","lat":35.6924,"lon":139.8757},{"name":"El Kelaa des Srarhna","country":"Morocco","lat":32.05,"lon":-7.4},{"name":"El Paso","country":"United States","lat":31.8479,"lon":-106.4309},{"name":"Encheng","country":"China","lat":22.1879,"lon":112.3131},{"name":"Ensenada","country":"Mexico","lat":31.8578,"lon":-116.6058},{"name":"Enugu","country":"Nigeria","lat":6.4403,"lon":7.4942},{"name":"Erbil","country":"Iraq","lat":36.1911,"lon":44.0094},{"name":"Esfahan","country":"Iran","lat":32.6447,"lon":51.6675},{"name":"Essen","country":"Germany","lat":51.4508,"lon":7.0131},{"name":"Ezhou","country":"China","lat":30.3972,"lon":114.8842},{"name":"Faisalabad","country":"Pakistan","lat":31.418,"lon":73.079},{"name":"Fangchenggang","country":"China","lat":21.6,"lon":108.3},{"name":"Faridabad","country":"India","lat":28.4353,"lon":77.3147},{"name":"Feicheng","country":"China","lat":36.186,"lon":116.772},{"name":"Feira de Santana","country":"Brazil","lat":-12.2669,"lon":-38.9669},{"name":"Fengcheng","country":"China","lat":40.4543,"lon":124.0646},{"name":"Fes","country":"Morocco","lat":34.0433,"lon":-5.0033},{"name":"Fort Worth","country":"United States","lat":32.7811,"lon":-97.3473},{"name":"Fortaleza","country":"Brazil","lat":-3.7275,"lon":-38.5275},{"name":"Foshan","country":"China","lat":23.0292,"lon":113.1056},{"name":"Frankfurt","country":"Germany","lat":50.1136,"lon":8.6797},{"name":"Freetown","country":"Sierra Leone","lat":8.4833,"lon":-13.2331},{"name":"Fresno","country":"United States","lat":36.7831,"lon":-119.7941},{"name":"Fu'an","country":"China","lat":27.1,"lon":119.6333},{"name":"Fuding","country":"China","lat":27.2,"lon":120.2},{"name":"Fukuoka","country":"Japan","lat":33.6,"lon":130.4167},{"name":"Fuqing","country":"China","lat":25.7232,"lon":119.3735},{"name":"Fushun","country":"China","lat":41.8708,"lon":123.8917},{"name":"Fuxin","country":"China","lat":42.0127,"lon":121.6486},{"name":"Fuyang","country":"China","lat":32.8986,"lon":115.8045},{"name":"Fuzhou","country":"China","lat":26.0769,"lon":119.2917},{"name":"Gaizhou","country":"China","lat":40.4019,"lon":122.3499},{"name":"Ganzhou","country":"China","lat":25.8292,"lon":114.9336},{"name":"Gaobeidian","country":"China","lat":39.3257,"lon":115.8678},{"name":"Gaomi","country":"China","lat":36.3833,"lon":119.75},{"name":"Gaoping","country":"China","lat":30.7824,"lon":106.1281},{"name":"Gaoyou","country":"China","lat":32.7847,"lon":119.4432},{"name":"Gaozhou","country":"China","lat":21.9135,"lon":110.8481},{"name":"General Santos","country":"Philippines","lat":6.1167,"lon":125.1667},{"name":"Genoa","country":"Italy","lat":44.4072,"lon":8.934},{"name":"George Town","country":"Malaysia","lat":5.4145,"lon":100.3292},{"name":"Ghaziabad","country":"India","lat":28.6667,"lon":77.4167},{"name":"Ghulja","country":"China","lat":43.9,"lon":81.35},{"name":"Giza","country":"Egypt","lat":29.987,"lon":31.2118},{"name":"Glasgow","country":"United Kingdom","lat":55.8611,"lon":-4.25},{"name":"Goiania","country":"Brazil","lat":-16.6806,"lon":-49.2564},{"name":"Gold Coast","country":"Australia","lat":-28.0167,"lon":153.4},{"name":"Gongzhuling","country":"China","lat":43.5036,"lon":124.8088},{"name":"Gorakhpur","country":"India","lat":26.7611,"lon":83.3667},{"name":"Gothenburg","country":"Sweden","lat":57.6717,"lon":11.981},{"name":"Goyang","country":"South Korea","lat":37.6564,"lon":126.835},{"name":"Grand Rapids","country":"United States","lat":42.962,"lon":-85.6562},{"name":"Guadalajara","country":"Mexico","lat":20.6767,"lon":-103.3475},{"name":"Guadalupe","country":"Mexico","lat":25.6775,"lon":-100.2597},{"name":"Guang'an","country":"China","lat":30.4673,"lon":106.6336},{"name":"Guangshui","country":"China","lat":31.6189,"lon":113.8229},{"name":"Guangyuan","country":"China","lat":32.4353,"lon":105.8398},{"name":"Guangzhou","country":"China","lat":23.1288,"lon":113.259},{"name":"Guankou","country":"China","lat":28.2363,"lon":113.6984},{"name":"Guarulhos","country":"Brazil","lat":-23.4667,"lon":-46.5333},{"name":"Guatemala City","country":"Guatemala","lat":14.6099,"lon":-90.5252},{"name":"Guayaquil","country":"Ecuador","lat":-2.19,"lon":-79.8875},{"name":"Guigang","country":"China","lat":23.0961,"lon":109.6092},{"name":"Guilin","country":"China","lat":25.2667,"lon":110.2833},{"name":"Guiping","country":"China","lat":23.4,"lon":110.0833},{"name":"Guixi","country":"China","lat":28.2861,"lon":117.2083},{"name":"Guiyang","country":"China","lat":26.5794,"lon":106.7078},{"name":"Gujranwala","country":"Pakistan","lat":32.15,"lon":74.1833},{"name":"Gulou","country":"China","lat":26.0819,"lon":119.2981},{"name":"Guntur","country":"India","lat":16.3,"lon":80.45},{"name":"Guwahati","country":"India","lat":26.1722,"lon":91.7458},{"name":"Guyuan","country":"China","lat":36.008,"lon":106.2782},{"name":"Gwalior","country":"India","lat":26.215,"lon":78.1931},{"name":"Gwangju","country":"South Korea","lat":35.1667,"lon":126.9167},{"name":"Hachioji","country":"Japan","lat":35.6667,"lon":139.3167},{"name":"Hai Duong","country":"Vietnam","lat":20.9399,"lon":106.3309},{"name":"Hai'an","country":"China","lat":32.532,"lon":120.4604},{"name":"Haicheng","country":"China","lat":40.8523,"lon":122.7474},{"name":"Haikou","country":"China","lat":20.02,"lon":110.32},{"name":"Hailun","country":"China","lat":47.4585,"lon":126.9632},{"name":"Haiphong","country":"Vietnam","lat":20.8,"lon":106.6667},{"name":"Halwan","country":"Egypt","lat":29.8419,"lon":31.3342},{"name":"Hamadan","country":"Iran","lat":34.8,"lon":48.5167},{"name":"Hamah","country":"Syria","lat":35.1333,"lon":36.75},{"name":"Hamamatsu","country":"Japan","lat":34.7167,"lon":137.7333},{"name":"Hamburg","country":"Germany","lat":53.55,"lon":10.0},{"name":"Hamhung","country":"North Korea","lat":39.9167,"lon":127.5333},{"name":"Hamilton","country":"Canada","lat":43.2567,"lon":-79.8692},{"name":"Hanchuan","country":"China","lat":30.652,"lon":113.8274},{"name":"Handan","country":"China","lat":36.6116,"lon":114.4894},{"name":"Hangzhou","country":"China","lat":30.25,"lon":120.1675},{"name":"Hannover","country":"Germany","lat":52.3744,"lon":9.7386},{"name":"Hanoi","country":"Vietnam","lat":21.0245,"lon":105.8412},{"name":"Hanzhong","country":"China","lat":33.0794,"lon":107.026},{"name":"Haora","country":"India","lat":22.5736,"lon":88.3251},{"name":"Harare","country":"Zimbabwe","lat":-17.8292,"lon":31.0522},{"name":"Harbin","country":"China","lat":45.75,"lon":126.6333},{"name":"Hartford","country":"United States","lat":41.7661,"lon":-72.6834},{"name":"Havana","country":"Cuba","lat":23.1367,"lon":-82.3589},{"name":"Hebi","country":"China","lat":35.7497,"lon":114.2887},{"name":"Hechi","country":"China","lat":24.6928,"lon":108.085},{"name":"Hefei","country":"China","lat":31.8639,"lon":117.2808},{"name":"Hegang","country":"China","lat":47.3139,"lon":130.2775},{"name":"Heihe","country":"China","lat":50.2458,"lon":127.4886},{"name":"Hejian","country":"China","lat":38.4451,"lon":116.0897},{"name":"Helsinki","country":"Finland","lat":60.1756,"lon":24.9342},{"name":"Hempstead","country":"United States","lat":40.6629,"lon":-73.6089},{"name":"Hengshui","country":"China","lat":37.7348,"lon":115.686},{"name":"Hengyang","country":"China","lat":26.8968,"lon":112.5857},{"name":"Hengzhou","country":"China","lat":22.6896,"lon":109.2674},{"name":"Herat","country":"Afghanistan","lat":34.3738,"lon":62.1792},{"name":"Hermosillo","country":"Mexico","lat":29.0989,"lon":-110.9542},{"name":"Heroica Matamoros","country":"Mexico","lat":25.8797,"lon":-97.5042},{"name":"Heshan","country":"China","lat":22.7697,"lon":112.9578},{"name":"Heyuan","country":"China","lat":23.7503,"lon":114.6923},{"name":"Heze","country":"China","lat":35.2333,"lon":115.4333},{"name":"Hezhou","country":"China","lat":24.4164,"lon":111.5478},{"name":"Himeji","country":"Japan","lat":34.8167,"lon":134.6833},{"name":"Hiroshima","country":"Japan","lat":34.4,"lon":132.45},{"name":"Ho Chi Minh City","country":"Vietnam","lat":10.8167,"lon":106.6333},{"name":"Hohhot","country":"China","lat":40.8151,"lon":111.6629},{"name":"Homs","country":"Syria","lat":34.7333,"lon":36.7167},{"name":"Homyel'","country":"Belarus","lat":52.4417,"lon":30.9833},{"name":"Honcho","country":"Japan","lat":35.6947,"lon":139.9825},{"name":"Hong Kong","country":"Hong Kong","lat":22.3069,"lon":114.1831},{"name":"Honolulu","country":"United States","lat":21.3294,"lon":-157.846},{"name":"Houston","country":"United States","lat":29.7863,"lon":-95.3889},{"name":"Huai'an","country":"China","lat":33.5,"lon":119.1331},{"name":"Huaibei","country":"China","lat":33.9562,"lon":116.789},{"name":"Huaihua","country":"China","lat":27.5494,"lon":109.9592},{"name":"Huainan","country":"China","lat":32.4831,"lon":117.0164},{"name":"Huaiyin","country":"China","lat":33.5819,"lon":119.028},{"name":"Huambo","country":"Angola","lat":-12.7667,"lon":15.7333},{"name":"Huanggang","country":"China","lat":30.45,"lon":114.875},{"name":"Huanghua","country":"China","lat":38.371,"lon":117.3329},{"name":"Huanglongsi","country":"China","lat":34.7936,"lon":114.3403},{"name":"Huangshan","country":"China","lat":29.7132,"lon":118.3151},{"name":"Huangshi","country":"China","lat":30.2018,"lon":115.0326},{"name":"Huazhou","country":"China","lat":32.6832,"lon":112.079},{"name":"Hubli","country":"India","lat":15.3619,"lon":75.1231},{"name":"Hue","country":"Vietnam","lat":16.4637,"lon":107.5908},{"name":"Huilong","country":"China","lat":31.8131,"lon":121.6574},{"name":"Huizhou","country":"China","lat":23.1115,"lon":114.4152},{"name":"Huludao","country":"China","lat":40.7094,"lon":120.8378},{"name":"Huzhou","country":"China","lat":30.8695,"lon":120.0958},{"name":"Hwasu-dong","country":"South Korea","lat":37.2,"lon":126.7667},{"name":"Hyderabad City","country":"Pakistan","lat":25.3792,"lon":68.3683},{"name":"Hyderabad","country":"India","lat":17.3617,"lon":78.4747},{"name":"Ibadan","country":"Nigeria","lat":7.3964,"lon":3.9167},{"name":"Ibague","country":"Colombia","lat":4.4378,"lon":-75.2006},{"name":"Iguacu","country":"Brazil","lat":-22.74,"lon":-43.47},{"name":"Ikare","country":"Nigeria","lat":7.5304,"lon":5.76},{"name":"Ikeja","country":"Nigeria","lat":6.6186,"lon":3.3426},{"name":"Ile-Ife","country":"Nigeria","lat":7.4667,"lon":4.5667},{"name":"Ilorin","country":"Nigeria","lat":8.5,"lon":4.55},{"name":"Incheon","country":"South Korea","lat":37.4639,"lon":126.6486},{"name":"Indianapolis","country":"United States","lat":39.7771,"lon":-86.1458},{"name":"Indore","country":"India","lat":22.7206,"lon":75.8472},{"name":"Ipoh","country":"Malaysia","lat":4.6,"lon":101.07},{"name":"Irapuato","country":"Mexico","lat":20.6667,"lon":-101.35},{"name":"Irbid","country":"Jordan","lat":32.5556,"lon":35.85},{"name":"Irkutsk","country":"Russia","lat":52.2833,"lon":104.3},{"name":"Islamabad","country":"Pakistan","lat":33.6989,"lon":73.0369},{"name":"Istanbul","country":"Turkey","lat":41.01,"lon":28.9603},{"name":"Itabashi","country":"Japan","lat":35.7667,"lon":139.6833},{"name":"Izhevsk","country":"Russia","lat":56.85,"lon":53.2167},{"name":"Jabalpur","country":"India","lat":23.1667,"lon":79.9333},{"name":"Jaboatao","country":"Brazil","lat":-8.1803,"lon":-35.0014},{"name":"Jacksonville","country":"United States","lat":30.3322,"lon":-81.6749},{"name":"Jaipur","country":"India","lat":26.9167,"lon":75.8667},{"name":"Jakarta","country":"Indonesia","lat":-6.2146,"lon":106.8451},{"name":"Jalandhar","country":"India","lat":31.3256,"lon":75.5792},{"name":"Jalingo","country":"Nigeria","lat":8.9195,"lon":11.3264},{"name":"Jambi","country":"Indonesia","lat":-1.59,"lon":103.61},{"name":"Jammu","country":"India","lat":32.7333,"lon":74.85},{"name":"Jamshedpur","country":"India","lat":22.8,"lon":86.1833},{"name":"Jeddah","country":"Saudi Arabia","lat":21.5428,"lon":39.1728},{"name":"Jeonju","country":"South Korea","lat":35.8219,"lon":127.1489},{"name":"Jerusalem","country":"Israel","lat":31.7833,"lon":35.2167},{"name":"Jhansi","country":"India","lat":25.4486,"lon":78.5696},{"name":"Ji'an","country":"China","lat":27.1172,"lon":114.9793},{"name":"Jiaji","country":"China","lat":19.2431,"lon":110.4642},{"name":"Jiamusi","country":"China","lat":46.8081,"lon":130.3653},{"name":"Jiangguanchi","country":"China","lat":34.0244,"lon":113.8201},{"name":"Jiangmen","country":"China","lat":22.5833,"lon":113.0833},{"name":"Jianguang","country":"China","lat":28.1958,"lon":115.7833},{"name":"Jiangyin","country":"China","lat":31.9087,"lon":120.2653},{"name":"Jianshe","country":"China","lat":34.2189,"lon":113.7693},{"name":"Jiaozhou","country":"China","lat":36.2481,"lon":119.9625},{"name":"Jiaozuo","country":"China","lat":35.229,"lon":113.2304},{"name":"Jiaxing","country":"China","lat":30.7522,"lon":120.75},{"name":"Jieshou","country":"China","lat":33.2605,"lon":115.3618},{"name":"Jieyang","country":"China","lat":23.5533,"lon":116.3649},{"name":"Jilin","country":"China","lat":43.8519,"lon":126.5481},{"name":"Jin'e","country":"China","lat":29.3395,"lon":105.2868},{"name":"Jinan","country":"China","lat":36.6667,"lon":116.9833},{"name":"Jincheng","country":"China","lat":35.4906,"lon":112.8483},{"name":"Jingcheng","country":"China","lat":32.0058,"lon":120.2547},{"name":"Jingdezhen","country":"China","lat":29.2942,"lon":117.2036},{"name":"Jinghong","country":"China","lat":22.0057,"lon":100.7948},{"name":"Jingling","country":"China","lat":30.6667,"lon":113.1667},{"name":"Jinhua","country":"China","lat":29.1046,"lon":119.6494},{"name":"Jining","country":"China","lat":35.4,"lon":116.5667},{"name":"Jinzhou","country":"China","lat":41.1144,"lon":121.1292},{"name":"Jiujiang","country":"China","lat":29.7048,"lon":116.0021},{"name":"Jixi","country":"China","lat":45.2937,"lon":130.965},{"name":"Joao Pessoa","country":"Brazil","lat":-7.12,"lon":-34.88},{"name":"Jodhpur","country":"India","lat":26.2944,"lon":73.0278},{"name":"Johannesburg","country":"South Africa","lat":-26.2044,"lon":28.0416},{"name":"Joinvile","country":"Brazil","lat":-26.3039,"lon":-48.8458},{"name":"Jos","country":"Nigeria","lat":9.9333,"lon":8.8833},{"name":"Juarez","country":"Mexico","lat":31.7386,"lon":-106.487},{"name":"Juiz de Fora","country":"Brazil","lat":-21.75,"lon":-43.35},{"name":"Jurong","country":"China","lat":31.9579,"lon":119.1595},{"name":"Kabul","country":"Afghanistan","lat":34.5328,"lon":69.1658},{"name":"Kaduna","country":"Nigeria","lat":10.5105,"lon":7.4165},{"name":"Kagoshima","country":"Japan","lat":31.58,"lon":130.5281},{"name":"Kaifeng Chengguanzhen","country":"China","lat":34.8519,"lon":114.3481},{"name":"Kaiyuan","country":"China","lat":36.0656,"lon":113.8153},{"name":"Kalyan","country":"India","lat":19.2502,"lon":73.1602},{"name":"Kampala","country":"Uganda","lat":0.3136,"lon":32.5811},{"name":"Kananga","country":"Congo (Kinshasa)","lat":-5.8961,"lon":22.4167},{"name":"Kandahar","country":"Afghanistan","lat":31.6078,"lon":65.7053},{"name":"Kano","country":"Nigeria","lat":12.0,"lon":8.5167},{"name":"Kansas City","country":"United States","lat":39.1239,"lon":-94.5541},{"name":"Kaohsiung","country":"Taiwan","lat":22.6167,"lon":120.3},{"name":"Karachi","country":"Pakistan","lat":24.86,"lon":67.01},{"name":"Karaj","country":"Iran","lat":35.8327,"lon":50.9915},{"name":"Karbala'","country":"Iraq","lat":32.6167,"lon":44.0333},{"name":"Kashgar","country":"China","lat":39.45,"lon":75.9833},{"name":"Kassala","country":"Sudan","lat":15.45,"lon":36.4},{"name":"Kathmandu","country":"Nepal","lat":27.7167,"lon":85.3667},{"name":"Kawaguchi","country":"Japan","lat":35.8078,"lon":139.7242},{"name":"Kawasaki","country":"Japan","lat":35.5167,"lon":139.7},{"name":"Kazan","country":"Russia","lat":55.7908,"lon":49.1144},{"name":"Kemerovo","country":"Russia","lat":55.3333,"lon":86.0667},{"name":"Kerman","country":"Iran","lat":30.2833,"lon":57.0667},{"name":"Kermanshah","country":"Iran","lat":34.3167,"lon":47.0686},{"name":"Khabarovsk","country":"Russia","lat":48.4833,"lon":135.0667},{"name":"Kharkiv","country":"Ukraine","lat":50.0,"lon":36.2292},{"name":"Khartoum North","country":"Sudan","lat":15.6333,"lon":32.6333},{"name":"Khartoum","country":"Sudan","lat":15.6031,"lon":32.5265},{"name":"Khulna","country":"Bangladesh","lat":22.8167,"lon":89.55},{"name":"Kigali","country":"Rwanda","lat":-1.9536,"lon":30.0606},{"name":"Kikwit","country":"Congo (Kinshasa)","lat":-5.0333,"lon":18.8167},{"name":"Kingston","country":"Jamaica","lat":17.9714,"lon":-76.7931},{"name":"Kinshasa","country":"Congo (Kinshasa)","lat":-4.3317,"lon":15.3139},{"name":"Kirkuk","country":"Iraq","lat":35.4667,"lon":44.4},{"name":"Kirov","country":"Russia","lat":58.6,"lon":49.65},{"name":"Kisangani","country":"Congo (Kinshasa)","lat":0.5153,"lon":25.1911},{"name":"Kitakyushu","country":"Japan","lat":33.8833,"lon":130.8833},{"name":"Kitwe","country":"Zambia","lat":-12.8208,"lon":28.2119},{"name":"Klang","country":"Malaysia","lat":3.0333,"lon":101.45},{"name":"Knoxville","country":"United States","lat":35.9692,"lon":-83.9496},{"name":"Kobe","country":"Japan","lat":34.6913,"lon":135.183},{"name":"Kochi","country":"India","lat":9.9667,"lon":76.2833},{"name":"Kolhapur","country":"India","lat":16.7,"lon":74.2333},{"name":"Kolkata","country":"India","lat":22.5727,"lon":88.3639},{"name":"Korla","country":"China","lat":41.7646,"lon":86.1527},{"name":"Kota","country":"India","lat":25.18,"lon":75.83},{"name":"Koto-ku","country":"Japan","lat":35.6667,"lon":139.8167},{"name":"Krakow","country":"Poland","lat":50.0614,"lon":19.9372},{"name":"Krasnodar","country":"Russia","lat":45.0333,"lon":38.9833},{"name":"Krasnoyarsk","country":"Russia","lat":56.0089,"lon":92.8719},{"name":"Kryvyi Rih","country":"Ukraine","lat":47.9086,"lon":33.3433},{"name":"Kuaidamao","country":"China","lat":41.7302,"lon":125.9471},{"name":"Kuala Lumpur","country":"Malaysia","lat":3.1478,"lon":101.6953},{"name":"Kuantan","country":"Malaysia","lat":3.8167,"lon":103.3333},{"name":"Kuiju","country":"China","lat":36.8528,"lon":119.3904},{"name":"Kumamoto","country":"Japan","lat":32.8031,"lon":130.7078},{"name":"Kumasi","country":"Ghana","lat":6.6833,"lon":-1.6167},{"name":"Kumul","country":"China","lat":42.8322,"lon":93.5155},{"name":"Kunming","country":"China","lat":25.0433,"lon":102.7061},{"name":"Kuwait City","country":"Kuwait","lat":29.375,"lon":47.98},{"name":"Kyiv","country":"Ukraine","lat":50.45,"lon":30.5236},{"name":"Kyoto","country":"Japan","lat":35.0117,"lon":135.7683},{"name":"La Paz","country":"Bolivia","lat":-16.4942,"lon":-68.1475},{"name":"Lagos","country":"Nigeria","lat":6.45,"lon":3.4},{"name":"Lahore","country":"Pakistan","lat":31.5497,"lon":74.3436},{"name":"Laibin","country":"China","lat":23.7333,"lon":109.2333},{"name":"Laiwu","country":"China","lat":36.1833,"lon":117.6667},{"name":"Laixi","country":"China","lat":36.8667,"lon":120.5333},{"name":"Laiyang","country":"China","lat":36.9758,"lon":120.7136},{"name":"Langfang","country":"China","lat":39.5196,"lon":116.7006},{"name":"Langzhong","country":"China","lat":31.5504,"lon":105.9938},{"name":"Lanzhou","country":"China","lat":36.0617,"lon":103.8318},{"name":"Las Pinas City","country":"Philippines","lat":14.45,"lon":120.9833},{"name":"Las Vegas","country":"United States","lat":36.2333,"lon":-115.2654},{"name":"Latakia","country":"Syria","lat":35.5236,"lon":35.7917},{"name":"Leeds","country":"United Kingdom","lat":53.7997,"lon":-1.5492},{"name":"Leipzig","country":"Germany","lat":51.3333,"lon":12.3833},{"name":"Leiyang","country":"China","lat":26.4179,"lon":112.8457},{"name":"Leizhou","country":"China","lat":20.9147,"lon":110.0806},{"name":"Leling","country":"China","lat":37.7333,"lon":117.2167},{"name":"Leon de los Aldama","country":"Mexico","lat":21.1167,"lon":-101.6833},{"name":"Leping","country":"China","lat":28.9632,"lon":117.1203},{"name":"Leshan","country":"China","lat":29.5854,"lon":103.7575},{"name":"Lhasa","country":"China","lat":29.6458,"lon":91.1408},{"name":"Liangshi","country":"China","lat":27.2578,"lon":111.7351},{"name":"Lianjiang","country":"China","lat":21.6146,"lon":110.2794},{"name":"Lianshan","country":"China","lat":40.7523,"lon":120.828},{"name":"Lianyuan","country":"China","lat":27.6961,"lon":111.6659},{"name":"Liaocheng","country":"China","lat":36.45,"lon":115.9833},{"name":"Liaoyang","country":"China","lat":41.2643,"lon":123.1772},{"name":"Liaoyuan","country":"China","lat":42.8976,"lon":125.1381},{"name":"Libreville","country":"Gabon","lat":0.3901,"lon":9.4544},{"name":"Licheng","country":"China","lat":31.4174,"lon":119.4786},{"name":"Lichuan","country":"China","lat":30.2965,"lon":108.9378},{"name":"Lilongwe","country":"Malawi","lat":-13.9833,"lon":33.7833},{"name":"Lima","country":"Peru","lat":-12.06,"lon":-77.0375},{"name":"Lincang","country":"China","lat":23.8864,"lon":100.0871},{"name":"Linfen","country":"China","lat":36.0812,"lon":111.5087},{"name":"Lingbao Chengguanzhen","country":"China","lat":34.5221,"lon":110.8786},{"name":"Lingyuan","country":"China","lat":41.2407,"lon":119.3957},{"name":"Linyi","country":"China","lat":35.0606,"lon":118.3425},{"name":"Lipetsk","country":"Russia","lat":52.6167,"lon":39.6},{"name":"Lisbon","country":"Portugal","lat":38.708,"lon":-9.139},{"name":"Liuzhou","country":"China","lat":24.3264,"lon":109.4281},{"name":"Liverpool","country":"United Kingdom","lat":53.4075,"lon":-2.9919},{"name":"Lodz","country":"Poland","lat":51.7769,"lon":19.4547},{"name":"Lome","country":"Togo","lat":6.1319,"lon":1.2228},{"name":"London","country":"United Kingdom","lat":51.5072,"lon":-0.1275},{"name":"Londrina","country":"Brazil","lat":-23.31,"lon":-51.1628},{"name":"Longba","country":"China","lat":33.535,"lon":105.349},{"name":"Longyan","country":"China","lat":25.0881,"lon":117.0244},{"name":"Longzhou","country":"China","lat":30.32,"lon":112.23},{"name":"Los Angeles","country":"United States","lat":34.1139,"lon":-118.4068},{"name":"Loudi","country":"China","lat":27.7378,"lon":111.9974},{"name":"Louisville","country":"United States","lat":38.1663,"lon":-85.6485},{"name":"Lu'an","country":"China","lat":31.7542,"lon":116.5078},{"name":"Luanda","country":"Angola","lat":-8.8383,"lon":13.2344},{"name":"Luanzhou","country":"China","lat":39.7396,"lon":118.6978},{"name":"Lubango","country":"Angola","lat":-14.9167,"lon":13.5},{"name":"Lubumbashi","country":"Congo (Kinshasa)","lat":-11.6697,"lon":27.4581},{"name":"Lucknow","country":"India","lat":26.847,"lon":80.947},{"name":"Ludhiana","country":"India","lat":30.9083,"lon":75.8486},{"name":"Luocheng","country":"China","lat":22.7645,"lon":111.5745},{"name":"Luofeng","country":"China","lat":37.359,"lon":120.396},{"name":"Luohe","country":"China","lat":33.583,"lon":114.0109},{"name":"Luoyang","country":"China","lat":34.6587,"lon":112.4245},{"name":"Lusaka","country":"Zambia","lat":-15.4167,"lon":28.2833},{"name":"Luzhou","country":"China","lat":28.8918,"lon":105.4409},{"name":"Lviv","country":"Ukraine","lat":49.8419,"lon":24.0315},{"name":"Lyon","country":"France","lat":45.76,"lon":4.84},{"name":"Ma'anshan","country":"China","lat":31.6858,"lon":118.5101},{"name":"Macau","country":"Macau","lat":22.203,"lon":113.545},{"name":"Maceio","country":"Brazil","lat":-9.6658,"lon":-35.735},{"name":"Macheng","country":"China","lat":31.1817,"lon":115.0189},{"name":"Madrid","country":"Spain","lat":40.4167,"lon":-3.7167},{"name":"Madurai","country":"India","lat":9.9197,"lon":78.1194},{"name":"Maiduguri","country":"Nigeria","lat":11.8333,"lon":13.15},{"name":"Maipu","country":"Chile","lat":-33.5167,"lon":-70.7667},{"name":"Makassar","country":"Indonesia","lat":-5.1331,"lon":119.4136},{"name":"Makati City","country":"Philippines","lat":14.55,"lon":121.0333},{"name":"Makhachkala","country":"Russia","lat":42.9833,"lon":47.4833},{"name":"Malaga","country":"Spain","lat":36.7194,"lon":-4.42},{"name":"Malang","country":"Indonesia","lat":-7.98,"lon":112.62},{"name":"Malegaon","country":"India","lat":20.55,"lon":74.55},{"name":"Managua","country":"Nicaragua","lat":12.15,"lon":-86.2667},{"name":"Manaus","country":"Brazil","lat":-3.1,"lon":-60.0167},{"name":"Manchester","country":"United Kingdom","lat":53.4794,"lon":-2.2453},{"name":"Mandalay","country":"Myanmar","lat":21.9831,"lon":96.0844},{"name":"Mangalore","country":"India","lat":12.8703,"lon":74.8806},{"name":"Manhattan","country":"United States","lat":40.7834,"lon":-73.9662},{"name":"Manila","country":"Philippines","lat":14.6,"lon":120.9833},{"name":"Maoming","country":"China","lat":21.6618,"lon":110.9178},{"name":"Maputo","country":"Mozambique","lat":-25.9153,"lon":32.5764},{"name":"Mar del Plata","country":"Argentina","lat":-38.0,"lon":-57.55},{"name":"Maracaibo","country":"Venezuela","lat":10.6333,"lon":-71.6333},{"name":"Marrakech","country":"Morocco","lat":31.6295,"lon":-7.9811},{"name":"Marseille","country":"France","lat":43.2964,"lon":5.37},{"name":"Mashhad","country":"Iran","lat":36.3069,"lon":59.6042},{"name":"Matola","country":"Mozambique","lat":-25.9667,"lon":32.4667},{"name":"Matsuyama","country":"Japan","lat":33.8333,"lon":132.7667},{"name":"Maturin","country":"Venezuela","lat":9.7457,"lon":-63.1832},{"name":"Mazatlan","country":"Mexico","lat":23.2167,"lon":-106.4167},{"name":"Mbuji-Mayi","country":"Congo (Kinshasa)","lat":-6.1209,"lon":23.5967},{"name":"McAllen","country":"United States","lat":26.2273,"lon":-98.2471},{"name":"Mecca","country":"Saudi Arabia","lat":21.4225,"lon":39.8261},{"name":"Medan","country":"Indonesia","lat":3.6667,"lon":98.6667},{"name":"Medellin","country":"Colombia","lat":6.2447,"lon":-75.5748},{"name":"Medina","country":"Saudi Arabia","lat":24.4667,"lon":39.6},{"name":"Meerut","country":"India","lat":28.99,"lon":77.7},{"name":"Meicheng","country":"China","lat":30.6412,"lon":116.5689},{"name":"Meihekou","country":"China","lat":42.5279,"lon":125.678},{"name":"Meishan","country":"China","lat":30.0575,"lon":103.8381},{"name":"Meizhou","country":"China","lat":24.2998,"lon":116.1191},{"name":"Meknes","country":"Morocco","lat":33.8833,"lon":-5.55},{"name":"Melbourne","country":"Australia","lat":-37.8136,"lon":144.9631},{"name":"Memphis","country":"United States","lat":35.1046,"lon":-89.9773},{"name":"Merida","country":"Mexico","lat":20.97,"lon":-89.62},{"name":"Meru","country":"Kenya","lat":0.05,"lon":37.65},{"name":"Mesa","country":"United States","lat":33.4017,"lon":-111.718},{"name":"Mexicali","country":"Mexico","lat":32.6633,"lon":-115.4678},{"name":"Mexico City","country":"Mexico","lat":19.4333,"lon":-99.1333},{"name":"Miami","country":"United States","lat":25.7839,"lon":-80.2102},{"name":"Mianyang","country":"China","lat":31.4669,"lon":104.7385},{"name":"Milan","country":"Italy","lat":45.4669,"lon":9.19},{"name":"Miluo Chengguanzhen","country":"China","lat":28.8049,"lon":113.0745},{"name":"Milwaukee","country":"United States","lat":43.0642,"lon":-87.9673},{"name":"Mingguang","country":"China","lat":32.7816,"lon":117.9899},{"name":"Minneapolis","country":"United States","lat":44.9635,"lon":-93.2678},{"name":"Minsk","country":"Belarus","lat":53.9022,"lon":27.5618},{"name":"Mirzapur","country":"India","lat":25.15,"lon":82.58},{"name":"Mission Viejo","country":"United States","lat":33.6095,"lon":-117.655},{"name":"Mississauga","country":"Canada","lat":43.6,"lon":-79.65},{"name":"Mizhou","country":"China","lat":35.99,"lon":119.3801},{"name":"Mogadishu","country":"Somalia","lat":2.0408,"lon":45.3425},{"name":"Mombasa","country":"Kenya","lat":-4.05,"lon":39.6667},{"name":"Monrovia","country":"Liberia","lat":6.3106,"lon":-10.8047},{"name":"Monteria","country":"Colombia","lat":8.76,"lon":-75.8856},{"name":"Monterrey","country":"Mexico","lat":25.6667,"lon":-100.3},{"name":"Montevideo","country":"Uruguay","lat":-34.8667,"lon":-56.1667},{"name":"Montreal","country":"Canada","lat":45.5089,"lon":-73.5617},{"name":"Moradabad","country":"India","lat":28.8437,"lon":78.7548},{"name":"Morelia","country":"Mexico","lat":19.7683,"lon":-101.1894},{"name":"Moscow","country":"Russia","lat":55.7558,"lon":37.6178},{"name":"Mosul","country":"Iraq","lat":36.3667,"lon":43.1167},{"name":"Mudanjiang","country":"China","lat":44.5861,"lon":129.5997},{"name":"Multan","country":"Pakistan","lat":30.1978,"lon":71.4711},{"name":"Mumbai","country":"India","lat":19.0758,"lon":72.8775},{"name":"Munich","country":"Germany","lat":48.1375,"lon":11.575},{"name":"Muntinlupa City","country":"Philippines","lat":14.3833,"lon":121.05},{"name":"Muscat","country":"Oman","lat":23.6139,"lon":58.5922},{"name":"Mysore","country":"India","lat":12.3086,"lon":76.6531},{"name":"N'Djamena","country":"Chad","lat":12.11,"lon":15.05},{"name":"Naberezhnyye Chelny","country":"Russia","lat":55.7,"lon":52.3333},{"name":"Nada","country":"China","lat":19.5,"lon":109.5833},{"name":"Nagoya","country":"Japan","lat":35.1167,"lon":136.9333},{"name":"Nagpur","country":"India","lat":21.1539,"lon":79.0831},{"name":"Nairobi","country":"Kenya","lat":-1.2864,"lon":36.8172},{"name":"Namangan","country":"Uzbekistan","lat":40.9953,"lon":71.6725},{"name":"Nampo","country":"North Korea","lat":38.7689,"lon":125.4505},{"name":"Nampula","country":"Mozambique","lat":-15.1167,"lon":39.2667},{"name":"Nanchang","country":"China","lat":28.6842,"lon":115.8872},{"name":"Nanchong","country":"China","lat":30.7991,"lon":106.0784},{"name":"Nanded","country":"India","lat":19.17,"lon":77.3},{"name":"Nangandao","country":"China","lat":35.2992,"lon":113.8851},{"name":"Nanjing","country":"China","lat":32.05,"lon":118.7667},{"name":"Nanning","country":"China","lat":22.8192,"lon":108.315},{"name":"Nanping","country":"China","lat":26.6448,"lon":118.1728},{"name":"Nantong","country":"China","lat":31.9829,"lon":120.8873},{"name":"Nanyang","country":"China","lat":32.9987,"lon":112.5292},{"name":"Naples","country":"Italy","lat":40.8333,"lon":14.25},{"name":"Nashville","country":"United States","lat":36.1715,"lon":-86.7843},{"name":"Nasik","country":"India","lat":20.0,"lon":73.7833},{"name":"Natal","country":"Brazil","lat":-6.9838,"lon":-60.2699},{"name":"Naucalpan de Juarez","country":"Mexico","lat":19.4753,"lon":-99.2378},{"name":"Nay Pyi Taw","country":"Myanmar","lat":19.7475,"lon":96.115},{"name":"Ndola","country":"Zambia","lat":-12.9683,"lon":28.6337},{"name":"Nehe","country":"China","lat":48.48,"lon":124.8738},{"name":"Neijiang","country":"China","lat":29.5872,"lon":105.0635},{"name":"Nellore","country":"India","lat":14.4333,"lon":79.9667},{"name":"Nerima","country":"Japan","lat":35.75,"lon":139.6167},{"name":"New Haven","country":"United States","lat":41.3112,"lon":-72.9246},{"name":"New Orleans","country":"United States","lat":30.0687,"lon":-89.9288},{"name":"New York","country":"United States","lat":40.6943,"lon":-73.9249},{"name":"Nezahualcoyotl","country":"Mexico","lat":19.4,"lon":-98.9889},{"name":"Niamey","country":"Niger","lat":13.5086,"lon":2.1111},{"name":"Niigata","country":"Japan","lat":37.9161,"lon":139.0364},{"name":"Ningbo","country":"China","lat":29.875,"lon":121.5492},{"name":"Ningde","country":"China","lat":26.6617,"lon":119.5228},{"name":"Nizhniy Novgorod","country":"Russia","lat":56.3269,"lon":44.0075},{"name":"Nouakchott","country":"Mauritania","lat":18.0858,"lon":-15.9785},{"name":"Novokuznetsk","country":"Russia","lat":53.75,"lon":87.1167},{"name":"Novosibirsk","country":"Russia","lat":55.0333,"lon":82.9167},{"name":"Nur-Sultan","country":"Kazakhstan","lat":51.1333,"lon":71.4333},{"name":"Nuremberg","country":"Germany","lat":49.4539,"lon":11.0775},{"name":"Odesa","country":"Ukraine","lat":46.4775,"lon":30.7326},{"name":"Ogbomoso","country":"Nigeria","lat":8.1333,"lon":4.25},{"name":"Ogden","country":"United States","lat":41.2278,"lon":-111.9682},{"name":"Okayama","country":"Japan","lat":34.65,"lon":133.9167},{"name":"Oklahoma City","country":"United States","lat":35.4676,"lon":-97.5136},{"name":"Omaha","country":"United States","lat":41.2627,"lon":-96.0522},{"name":"Omdurman","country":"Sudan","lat":15.6167,"lon":32.48},{"name":"Omsk","country":"Russia","lat":54.9667,"lon":73.3833},{"name":"Onitsha","country":"Nigeria","lat":6.1667,"lon":6.7833},{"name":"Oran","country":"Algeria","lat":35.6969,"lon":-0.6331},{"name":"Orenburg","country":"Russia","lat":51.7667,"lon":55.1},{"name":"Orlando","country":"United States","lat":28.4772,"lon":-81.3369},{"name":"Orumiyeh","country":"Iran","lat":37.5486,"lon":45.0675},{"name":"Osaka","country":"Japan","lat":34.752,"lon":135.4582},{"name":"Osasco","country":"Brazil","lat":-23.5328,"lon":-46.7919},{"name":"Oslo","country":"Norway","lat":59.9111,"lon":10.7528},{"name":"Osogbo","country":"Nigeria","lat":7.7597,"lon":4.5761},{"name":"Ota-ku","country":"Japan","lat":35.5614,"lon":139.7161},{"name":"Ottawa","country":"Canada","lat":45.4247,"lon":-75.695},{"name":"Ouagadougou","country":"Burkina Faso","lat":12.3686,"lon":-1.5275},{"name":"Owerri","country":"Nigeria","lat":5.4833,"lon":7.0333},{"name":"Padang","country":"Indonesia","lat":-0.9556,"lon":100.3606},{"name":"Palembang","country":"Indonesia","lat":-2.9833,"lon":104.7644},{"name":"Palermo","country":"Colombia","lat":2.8883,"lon":-75.4339},{"name":"Palermo","country":"Italy","lat":38.1111,"lon":13.3517},{"name":"Palm Bay","country":"United States","lat":27.955,"lon":-80.6627},{"name":"Panama City","country":"Panama","lat":9.0,"lon":-79.5},{"name":"Paris","country":"France","lat":48.8566,"lon":2.3522},{"name":"Pasig City","country":"Philippines","lat":14.575,"lon":121.0833},{"name":"Patna","country":"India","lat":25.61,"lon":85.1414},{"name":"Pekanbaru","country":"Indonesia","lat":0.5333,"lon":101.45},{"name":"Penza","country":"Russia","lat":53.2,"lon":45.0},{"name":"Pereira","country":"Colombia","lat":4.8143,"lon":-75.6946},{"name":"Perm","country":"Russia","lat":58.0139,"lon":56.2489},{"name":"Perth","country":"Australia","lat":-31.9522,"lon":115.8589},{"name":"Peshawar","country":"Pakistan","lat":34.0,"lon":71.5},{"name":"Petaling Jaya","country":"Malaysia","lat":3.1073,"lon":101.6067},{"name":"Philadelphia","country":"United States","lat":40.0077,"lon":-75.1339},{"name":"Phnom Penh","country":"Cambodia","lat":11.5696,"lon":104.921},{"name":"Phoenix","country":"United States","lat":33.5722,"lon":-112.0891},{"name":"Pietermaritzburg","country":"South Africa","lat":-29.6009,"lon":30.3796},{"name":"Pikine","country":"Senegal","lat":14.75,"lon":-17.4},{"name":"Pingdingshan","country":"China","lat":33.735,"lon":113.2999},{"name":"Pingdu","country":"China","lat":36.7833,"lon":119.9556},{"name":"Pingliang","country":"China","lat":35.5412,"lon":106.6819},{"name":"Pingtung","country":"Taiwan","lat":22.6761,"lon":120.4942},{"name":"Pingxiang","country":"China","lat":27.6333,"lon":113.85},{"name":"Pittsburgh","country":"United States","lat":40.4396,"lon":-79.9762},{"name":"Pizhou","country":"China","lat":34.3422,"lon":118.0097},{"name":"Pohang","country":"South Korea","lat":36.0322,"lon":129.365},{"name":"Pointe-Noire","country":"Congo (Brazzaville)","lat":-4.7889,"lon":11.8653},{"name":"Pontianak","country":"Indonesia","lat":-0.0206,"lon":109.3414},{"name":"Port Harcourt","country":"Nigeria","lat":4.75,"lon":7.0},{"name":"Port Said","country":"Egypt","lat":31.25,"lon":32.2833},{"name":"Port Sudan","country":"Sudan","lat":19.6158,"lon":37.2164},{"name":"Port-au-Prince","country":"Haiti","lat":18.5425,"lon":-72.3386},{"name":"Portland","country":"United States","lat":45.5372,"lon":-122.65},{"name":"Porto Alegre","country":"Brazil","lat":-30.0328,"lon":-51.23},{"name":"Poznan","country":"Poland","lat":52.4083,"lon":16.9336},{"name":"Prague","country":"Czechia","lat":50.0833,"lon":14.4167},{"name":"Pretoria","country":"South Africa","lat":-25.7464,"lon":28.1881},{"name":"Providence","country":"United States","lat":41.823,"lon":-71.4187},{"name":"Provo","country":"United States","lat":40.2457,"lon":-111.6457},{"name":"Pudong","country":"China","lat":31.2231,"lon":121.5397},{"name":"Puebla","country":"Mexico","lat":19.0333,"lon":-98.1833},{"name":"Puente Alto","country":"Chile","lat":-33.6167,"lon":-70.5833},{"name":"Pune","country":"India","lat":18.5196,"lon":73.8553},{"name":"Puning","country":"China","lat":23.2993,"lon":116.1586},{"name":"Putian","country":"China","lat":25.4394,"lon":119.0103},{"name":"Puxi","country":"China","lat":35.2125,"lon":114.735},{"name":"Puyang Chengguanzhen","country":"China","lat":35.7004,"lon":114.98},{"name":"Puyang","country":"China","lat":35.7639,"lon":115.03},{"name":"Pyongyang","country":"North Korea","lat":39.03,"lon":125.73},{"name":"Qamdo","country":"China","lat":31.1375,"lon":97.1777},{"name":"Qian'an","country":"China","lat":40.0059,"lon":118.6973},{"name":"Qianxi","country":"China","lat":27.0284,"lon":106.0327},{"name":"Qinbaling","country":"China","lat":35.7278,"lon":107.64},{"name":"Qincheng","country":"China","lat":34.5809,"lon":105.7311},{"name":"Qingdao","country":"China","lat":36.1167,"lon":120.4},{"name":"Qingnian","country":"China","lat":36.8494,"lon":115.7061},{"name":"Qingping","country":"China","lat":34.538,"lon":113.3796},{"name":"Qingyang","country":"China","lat":24.8141,"lon":118.5792},{"name":"Qingyuan","country":"China","lat":23.6842,"lon":113.0507},{"name":"Qingzhou","country":"China","lat":36.6967,"lon":118.4797},{"name":"Qinhuangdao","country":"China","lat":39.9398,"lon":119.5881},{"name":"Qinzhou","country":"China","lat":21.95,"lon":108.6167},{"name":"Qionghu","country":"China","lat":28.8417,"lon":112.3595},{"name":"Qiqihar","country":"China","lat":47.3398,"lon":123.9512},{"name":"Qom","country":"Iran","lat":34.64,"lon":50.8764},{"name":"Quang Ha","country":"Vietnam","lat":16.06,"lon":108.25},{"name":"Quanzhou","country":"China","lat":24.9139,"lon":118.5858},{"name":"Quebec City","country":"Canada","lat":46.8139,"lon":-71.2081},{"name":"Queens","country":"United States","lat":40.7498,"lon":-73.7976},{"name":"Queretaro","country":"Mexico","lat":20.5875,"lon":-100.3928},{"name":"Quetta","country":"Pakistan","lat":30.192,"lon":67.007},{"name":"Quezon City","country":"Philippines","lat":14.6333,"lon":121.0333},{"name":"Qufu","country":"China","lat":35.6,"lon":116.9833},{"name":"Quito","country":"Ecuador","lat":-0.22,"lon":-78.5125},{"name":"Qujing","country":"China","lat":25.5102,"lon":103.8029},{"name":"Rabat","country":"Morocco","lat":34.0253,"lon":-6.8361},{"name":"Raipur","country":"India","lat":21.2379,"lon":81.6337},{"name":"Rajkot","country":"India","lat":22.2969,"lon":70.7984},{"name":"Raleigh","country":"United States","lat":35.8325,"lon":-78.6435},{"name":"Ranchi","country":"India","lat":23.3556,"lon":85.3347},{"name":"Rangoon","country":"Myanmar","lat":16.795,"lon":96.16},{"name":"Rasht","country":"Iran","lat":37.2833,"lon":49.6},{"name":"Raurkela","country":"India","lat":22.2492,"lon":84.8828},{"name":"Rawalpindi","country":"Pakistan","lat":33.6007,"lon":73.0679},{"name":"Recife","country":"Brazil","lat":-8.0539,"lon":-34.8808},{"name":"Renqiu","country":"China","lat":38.7094,"lon":116.1008},{"name":"Reynosa","country":"Mexico","lat":26.0922,"lon":-98.2778},{"name":"Ribeirao Preto","country":"Brazil","lat":-21.1783,"lon":-47.8067},{"name":"Richmond","country":"United States","lat":37.5295,"lon":-77.4756},{"name":"Riga","country":"Latvia","lat":56.9475,"lon":24.1069},{"name":"Rio de Janeiro","country":"Brazil","lat":-22.9083,"lon":-43.1964},{"name":"Riverside","country":"United States","lat":33.9381,"lon":-117.3948},{"name":"Riyadh","country":"Saudi Arabia","lat":24.65,"lon":46.71},{"name":"Rizhao","country":"China","lat":35.4164,"lon":119.4331},{"name":"Rochester","country":"United States","lat":43.168,"lon":-77.6162},{"name":"Rome","country":"Italy","lat":41.8931,"lon":12.4828},{"name":"Rongcheng","country":"China","lat":26.2312,"lon":104.0966},{"name":"Rongjiawan","country":"China","lat":29.1409,"lon":113.1087},{"name":"Rosario","country":"Argentina","lat":-32.9575,"lon":-60.6394},{"name":"Rostov","country":"Russia","lat":47.2333,"lon":39.7167},{"name":"Rotterdam","country":"Netherlands","lat":51.9225,"lon":4.4792},{"name":"Rucheng","country":"China","lat":32.3852,"lon":120.5634},{"name":"Ruiming","country":"China","lat":25.8833,"lon":116.0333},{"name":"Ryazan","country":"Russia","lat":54.6167,"lon":39.7167},{"name":"Sacramento","country":"United States","lat":38.5667,"lon":-121.4683},{"name":"Sagamihara","country":"Japan","lat":35.5667,"lon":139.3667},{"name":"Saharanpur","country":"India","lat":29.964,"lon":77.546},{"name":"Saidu Sharif","country":"Pakistan","lat":34.75,"lon":72.3572},{"name":"Saint Petersburg","country":"Russia","lat":59.95,"lon":30.3167},{"name":"Saitama","country":"Japan","lat":35.8617,"lon":139.6453},{"name":"Sakai","country":"Japan","lat":34.5667,"lon":135.4833},{"name":"Sale","country":"Morocco","lat":34.05,"lon":-6.8167},{"name":"Salem","country":"India","lat":11.65,"lon":78.1667},{"name":"Salt Lake City","country":"United States","lat":40.7777,"lon":-111.9306},{"name":"Salta","country":"Argentina","lat":-24.7883,"lon":-65.4106},{"name":"Saltillo","country":"Mexico","lat":25.4333,"lon":-101.0},{"name":"Salvador","country":"Brazil","lat":-12.9708,"lon":-38.5108},{"name":"Samara","country":"Russia","lat":53.1833,"lon":50.1167},{"name":"Samarinda","country":"Indonesia","lat":-0.5022,"lon":117.1536},{"name":"Samarkand","country":"Uzbekistan","lat":39.6542,"lon":66.9597},{"name":"San Antonio","country":"United States","lat":29.4658,"lon":-98.5253},{"name":"San Diego","country":"United States","lat":32.8312,"lon":-117.1225},{"name":"San Francisco","country":"United States","lat":37.7562,"lon":-122.443},{"name":"San Jose del Monte","country":"Philippines","lat":14.8139,"lon":121.0453},{"name":"San Jose","country":"United States","lat":37.3019,"lon":-121.8486},{"name":"San Luis Potosi","country":"Mexico","lat":22.1511,"lon":-100.9761},{"name":"San Miguel de Tucuman","country":"Argentina","lat":-26.8167,"lon":-65.2167},{"name":"San Pedro Sula","country":"Honduras","lat":15.5,"lon":-88.0333},{"name":"San Salvador","country":"El Salvador","lat":13.6989,"lon":-89.1914},{"name":"Sanaa","country":"Yemen","lat":15.35,"lon":44.2},{"name":"Sanhe","country":"China","lat":39.9808,"lon":117.0701},{"name":"Sanmenxia","country":"China","lat":34.7736,"lon":111.195},{"name":"Sanming","country":"China","lat":26.2658,"lon":117.6302},{"name":"Santa Cruz","country":"Bolivia","lat":-17.7892,"lon":-63.1975},{"name":"Santa Marta","country":"Colombia","lat":11.2361,"lon":-74.2017},{"name":"Santa Teresa del Tuy","country":"Venezuela","lat":10.2333,"lon":-66.65},{"name":"Santiago","country":"Chile","lat":-33.45,"lon":-70.6667},{"name":"Santiago","country":"Dominican Republic","lat":19.45,"lon":-70.7},{"name":"Santo Andre","country":"Brazil","lat":-23.6572,"lon":-46.5333},{"name":"Santo Domingo Este","country":"Dominican Republic","lat":18.4855,"lon":-69.8734},{"name":"Santo Domingo","country":"Dominican Republic","lat":18.4764,"lon":-69.8933},{"name":"Sanya","country":"China","lat":18.2536,"lon":109.5019},{"name":"Sanzhou","country":"China","lat":30.82,"lon":108.4},{"name":"Sao Bernardo do Campo","country":"Brazil","lat":-23.6939,"lon":-46.565},{"name":"Sao Goncalo","country":"Brazil","lat":-22.8269,"lon":-43.0539},{"name":"Sao Jose dos Campos","country":"Brazil","lat":-23.1789,"lon":-45.8869},{"name":"Sao Luis","country":"Brazil","lat":-2.53,"lon":-44.3028},{"name":"Sao Paulo","country":"Brazil","lat":-23.5504,"lon":-46.6339},{"name":"Sapporo","country":"Japan","lat":43.0621,"lon":141.3544},{"name":"Sarasota","country":"United States","lat":27.3386,"lon":-82.5431},{"name":"Saratov","country":"Russia","lat":51.5333,"lon":46.0},{"name":"Sargodha","country":"Pakistan","lat":32.0836,"lon":72.6711},{"name":"Seattle","country":"United States","lat":47.6211,"lon":-122.3244},{"name":"Semarang","country":"Indonesia","lat":-6.9667,"lon":110.4167},{"name":"Sendai","country":"Japan","lat":38.2683,"lon":140.8694},{"name":"Seoul","country":"South Korea","lat":37.56,"lon":126.99},{"name":"Serang","country":"Indonesia","lat":-6.12,"lon":106.1503},{"name":"Setagaya","country":"Japan","lat":35.6464,"lon":139.6533},{"name":"Sevastopol","country":"Ukraine","lat":44.6,"lon":33.5333},{"name":"Sevilla","country":"Spain","lat":37.39,"lon":-5.99},{"name":"Shache","country":"China","lat":38.4261,"lon":77.25},{"name":"Shah Alam","country":"Malaysia","lat":3.0833,"lon":101.5333},{"name":"Shanghai","country":"China","lat":31.1667,"lon":121.4667},{"name":"Shangqiu","country":"China","lat":34.4259,"lon":115.6467},{"name":"Shangrao","country":"China","lat":28.4419,"lon":117.9633},{"name":"Shangzhi","country":"China","lat":45.2116,"lon":127.962},{"name":"Shangzhou","country":"China","lat":33.868,"lon":109.9244},{"name":"Shantou","country":"China","lat":23.3735,"lon":116.6941},{"name":"Shanwei","country":"China","lat":22.7664,"lon":115.3331},{"name":"Shaoguan","country":"China","lat":24.8011,"lon":113.5927},{"name":"Shaoxing","country":"China","lat":30.0,"lon":120.5833},{"name":"Shaoyang","country":"China","lat":27.2418,"lon":111.4725},{"name":"Sharjah","country":"United Arab Emirates","lat":25.3575,"lon":55.3919},{"name":"Sheffield","country":"United Kingdom","lat":53.3808,"lon":-1.4703},{"name":"Shengli","country":"China","lat":37.45,"lon":118.4667},{"name":"Shenyang","country":"China","lat":41.8039,"lon":123.4258},{"name":"Shenzhen","country":"China","lat":22.535,"lon":114.054},{"name":"Shenzhou","country":"China","lat":38.0005,"lon":115.5541},{"name":"Shihezi","country":"China","lat":44.3,"lon":86.0333},{"name":"Shijiazhuang","country":"China","lat":38.0422,"lon":114.5086},{"name":"Shimoga","country":"India","lat":13.9167,"lon":75.5667},{"name":"Shiraz","country":"Iran","lat":29.61,"lon":52.5425},{"name":"Shishi","country":"China","lat":24.7355,"lon":118.6434},{"name":"Shiyan","country":"China","lat":32.6351,"lon":110.7755},{"name":"Shizuoka","country":"Japan","lat":34.9756,"lon":138.3825},{"name":"Shouguang","country":"China","lat":36.8833,"lon":118.7333},{"name":"Shuangqiao","country":"China","lat":35.0833,"lon":112.5833},{"name":"Shuangyashan","country":"China","lat":46.6388,"lon":131.1545},{"name":"Shubra al Khaymah","country":"Egypt","lat":30.1286,"lon":31.2422},{"name":"Shuizhai","country":"China","lat":33.4433,"lon":114.8994},{"name":"Shulan","country":"China","lat":44.4079,"lon":126.9429},{"name":"Shuozhou","country":"China","lat":39.3408,"lon":112.4292},{"name":"Shuyangzha","country":"China","lat":34.1299,"lon":118.7734},{"name":"Shymkent","country":"Kazakhstan","lat":42.3,"lon":69.6},{"name":"Sialkot City","country":"Pakistan","lat":32.5,"lon":74.5333},{"name":"Sihui","country":"China","lat":23.3448,"lon":112.6956},{"name":"Singapore","country":"Singapore","lat":1.3,"lon":103.8},{"name":"Siping","country":"China","lat":43.1715,"lon":124.3644},{"name":"Sizhan","country":"China","lat":39.0099,"lon":106.3694},{"name":"Skopje","country":"Macedonia","lat":41.9833,"lon":21.4333},{"name":"Soacha","country":"Colombia","lat":4.5781,"lon":-74.2144},{"name":"Sofia","country":"Bulgaria","lat":42.6979,"lon":23.3217},{"name":"Solapur","country":"India","lat":17.6715,"lon":75.9104},{"name":"Soledad","country":"Colombia","lat":10.92,"lon":-74.77},{"name":"Songnam","country":"South Korea","lat":37.4386,"lon":127.1378},{"name":"Songyang","country":"China","lat":34.4603,"lon":113.028},{"name":"Songzi","country":"China","lat":30.1772,"lon":111.7732},{"name":"Sorocaba","country":"Brazil","lat":-23.5019,"lon":-47.4578},{"name":"Soweto","country":"South Africa","lat":-26.2678,"lon":27.8586},{"name":"Springfield","country":"United States","lat":42.1155,"lon":-72.5395},{"name":"Srinagar","country":"India","lat":34.0911,"lon":74.8061},{"name":"St. Louis","country":"United States","lat":38.6358,"lon":-90.2451},{"name":"Stockholm","country":"Sweden","lat":59.3294,"lon":18.0686},{"name":"Stuttgart","country":"Germany","lat":48.7761,"lon":9.1775},{"name":"Suez","country":"Egypt","lat":29.9667,"lon":32.5333},{"name":"Suginami-ku","country":"Japan","lat":35.6833,"lon":139.6167},{"name":"Suihua","country":"China","lat":46.6384,"lon":126.9808},{"name":"Suining","country":"China","lat":30.5098,"lon":105.5737},{"name":"Suohe","country":"China","lat":34.7879,"lon":113.392},{"name":"Suqian","country":"China","lat":33.9331,"lon":118.2831},{"name":"Surabaya","country":"Indonesia","lat":-7.2458,"lon":112.7378},{"name":"Surakarta","country":"Indonesia","lat":-7.5667,"lon":110.8167},{"name":"Surat","country":"India","lat":21.17,"lon":72.83},{"name":"Surrey","country":"Canada","lat":49.19,"lon":-122.8489},{"name":"Suwon","country":"South Korea","lat":37.2858,"lon":127.01},{"name":"Suzhou","country":"China","lat":33.6333,"lon":116.9683},{"name":"Sydney","country":"Australia","lat":-33.865,"lon":151.2094},{"name":"Ta`izz","country":"Yemen","lat":13.5789,"lon":44.0219},{"name":"Tabriz","country":"Iran","lat":38.0833,"lon":46.2833},{"name":"Tabuk","country":"Saudi Arabia","lat":28.3838,"lon":36.555},{"name":"Taguig City","country":"Philippines","lat":14.5167,"lon":121.05},{"name":"Tai'an","country":"China","lat":36.2001,"lon":117.0809},{"name":"Taichung","country":"Taiwan","lat":24.15,"lon":120.6667},{"name":"Taihe","country":"China","lat":30.8706,"lon":105.3784},{"name":"Taihecun","country":"China","lat":45.768,"lon":131.0063},{"name":"Tainan","country":"Taiwan","lat":22.9833,"lon":120.1833},{"name":"Taipei","country":"Taiwan","lat":25.0478,"lon":121.5319},{"name":"Taishan","country":"China","lat":22.2486,"lon":112.785},{"name":"Taixing","country":"China","lat":32.1724,"lon":120.0142},{"name":"Taiyuan","country":"China","lat":37.8733,"lon":112.5425},{"name":"Taizhou","country":"China","lat":32.4831,"lon":119.9},{"name":"Talatona","country":"Angola","lat":-8.9167,"lon":13.1833},{"name":"Tamale","country":"Ghana","lat":9.4075,"lon":-0.8533},{"name":"Tampa","country":"United States","lat":27.9942,"lon":-82.4451},{"name":"Tangerang","country":"Indonesia","lat":-6.1783,"lon":106.6319},{"name":"Tangier","country":"Morocco","lat":35.7767,"lon":-5.8039},{"name":"Tangshan","country":"China","lat":39.6292,"lon":118.1742},{"name":"Tashkent","country":"Uzbekistan","lat":41.3,"lon":69.2667},{"name":"Tasikmalaya","country":"Indonesia","lat":-7.3333,"lon":108.2},{"name":"Tbilisi","country":"Georgia","lat":41.7225,"lon":44.7925},{"name":"Tegucigalpa","country":"Honduras","lat":14.0942,"lon":-87.2067},{"name":"Tehran","country":"Iran","lat":35.7,"lon":51.4167},{"name":"Tengyue","country":"China","lat":25.0208,"lon":98.4972},{"name":"Teresina","country":"Brazil","lat":-5.0949,"lon":-42.8042},{"name":"Thane","country":"India","lat":19.18,"lon":72.9633},{"name":"The Hague","country":"Netherlands","lat":52.08,"lon":4.31},{"name":"Thiruvananthapuram","country":"India","lat":8.5,"lon":76.8997},{"name":"Thu Duc","country":"Vietnam","lat":10.7924,"lon":106.7518},{"name":"Tianchang","country":"China","lat":32.6853,"lon":119.0041},{"name":"Tianjin","country":"China","lat":39.1467,"lon":117.2056},{"name":"Tieling","country":"China","lat":42.2841,"lon":123.8365},{"name":"Tijuana","country":"Mexico","lat":32.525,"lon":-117.0333},{"name":"Timbio","country":"Colombia","lat":2.3528,"lon":-76.6819},{"name":"Tinnevelly","country":"India","lat":8.7289,"lon":77.7081},{"name":"Tiruppur","country":"India","lat":11.1075,"lon":77.3398},{"name":"Tlajomulco de Zuniga","country":"Mexico","lat":20.4736,"lon":-103.4431},{"name":"Tlalnepantla","country":"Mexico","lat":19.5367,"lon":-99.1947},{"name":"Tlaquepaque","country":"Mexico","lat":20.6167,"lon":-103.3167},{"name":"Tokyo","country":"Japan","lat":35.6839,"lon":139.7744},{"name":"Tolyatti","country":"Russia","lat":53.5167,"lon":49.4167},{"name":"Tomsk","country":"Russia","lat":56.4886,"lon":84.9522},{"name":"Tonala","country":"Mexico","lat":20.6167,"lon":-103.2333},{"name":"Tongchuan","country":"China","lat":34.9057,"lon":108.9422},{"name":"Tongliao","country":"China","lat":43.6172,"lon":122.264},{"name":"Tongren","country":"China","lat":27.7233,"lon":109.1885},{"name":"Tongshan","country":"China","lat":34.261,"lon":117.1859},{"name":"Toronto","country":"Canada","lat":43.7417,"lon":-79.3733},{"name":"Torreon","country":"Mexico","lat":25.5394,"lon":-103.4486},{"name":"Touba","country":"Senegal","lat":14.8667,"lon":-15.8833},{"name":"Trichinopoly","country":"India","lat":10.8269,"lon":78.6928},{"name":"Tripoli","country":"Lebanon","lat":34.4333,"lon":35.8333},{"name":"Tripoli","country":"Libya","lat":32.8752,"lon":13.1875},{"name":"Trujillo","country":"Peru","lat":-8.1119,"lon":-79.0289},{"name":"Tucson","country":"United States","lat":32.1545,"lon":-110.8782},{"name":"Tulsa","country":"United States","lat":36.1284,"lon":-95.9042},{"name":"Tultitlan de Mariano Escobedo","country":"Mexico","lat":19.645,"lon":-99.1694},{"name":"Tumkur","country":"India","lat":13.3422,"lon":77.1017},{"name":"Tunis","country":"Tunisia","lat":36.8008,"lon":10.18},{"name":"Turin","country":"Italy","lat":45.0667,"lon":7.7},{"name":"Turpan","country":"China","lat":42.95,"lon":89.1822},{"name":"Tuxtla","country":"Mexico","lat":16.7528,"lon":-93.1167},{"name":"Tyumen","country":"Russia","lat":57.15,"lon":65.5333},{"name":"Uberlandia","country":"Brazil","lat":-18.9189,"lon":-48.2769},{"name":"Ufa","country":"Russia","lat":54.7261,"lon":55.9475},{"name":"Ujjain","country":"India","lat":23.1828,"lon":75.7772},{"name":"Ulaanbaatar","country":"Mongolia","lat":47.9214,"lon":106.9055},{"name":"Ulhasnagar","country":"India","lat":19.2167,"lon":73.15},{"name":"Ulsan","country":"South Korea","lat":35.55,"lon":129.3167},{"name":"Ulyanovsk","country":"Russia","lat":54.3167,"lon":48.3667},{"name":"Urumqi","country":"China","lat":43.8225,"lon":87.6125},{"name":"Utsunomiya","country":"Japan","lat":36.55,"lon":139.8833},{"name":"Vadodara","country":"India","lat":22.3,"lon":73.2},{"name":"Valencia","country":"Spain","lat":39.47,"lon":-0.3764},{"name":"Valencia","country":"Venezuela","lat":10.1667,"lon":-68.0},{"name":"Valenzuela","country":"Philippines","lat":14.7,"lon":120.9833},{"name":"Valledupar","country":"Colombia","lat":10.4603,"lon":-73.2597},{"name":"Vancouver","country":"Canada","lat":49.25,"lon":-123.1},{"name":"Varanasi","country":"India","lat":25.3189,"lon":83.0128},{"name":"Vereeniging","country":"South Africa","lat":-26.6736,"lon":27.9319},{"name":"Vienna","country":"Austria","lat":48.2083,"lon":16.3725},{"name":"Vientiane","country":"Laos","lat":17.9667,"lon":102.6},{"name":"Vila Velha","country":"Brazil","lat":3.2167,"lon":-51.2167},{"name":"Villa Nueva","country":"Guatemala","lat":14.5314,"lon":-90.5964},{"name":"Villahermosa","country":"Mexico","lat":17.9892,"lon":-92.9281},{"name":"Villavicencio","country":"Colombia","lat":4.1425,"lon":-73.6294},{"name":"Vilnius","country":"Lithuania","lat":54.6833,"lon":25.2833},{"name":"Virginia Beach","country":"United States","lat":36.7335,"lon":-76.0435},{"name":"Vishakhapatnam","country":"India","lat":17.7333,"lon":83.3167},{"name":"Vladivostok","country":"Russia","lat":43.1167,"lon":131.9},{"name":"Volgograd","country":"Russia","lat":48.7086,"lon":44.5147},{"name":"Voronezh","country":"Russia","lat":51.6717,"lon":39.2106},{"name":"Wafangdian","country":"China","lat":39.6271,"lon":121.9972},{"name":"Wancheng","country":"China","lat":18.8,"lon":110.4},{"name":"Warangal","country":"India","lat":17.9756,"lon":79.6011},{"name":"Warri","country":"Nigeria","lat":5.5167,"lon":5.75},{"name":"Warsaw","country":"Poland","lat":52.23,"lon":21.0111},{"name":"Washington","country":"United States","lat":38.9047,"lon":-77.0163},{"name":"Weichanglu","country":"China","lat":37.1792,"lon":119.9333},{"name":"Weifang","country":"China","lat":36.7167,"lon":119.1},{"name":"Weihai","country":"China","lat":37.5,"lon":122.1},{"name":"Weinan","country":"China","lat":34.4996,"lon":109.4684},{"name":"Wenchang","country":"China","lat":31.054,"lon":116.9507},{"name":"Wencheng","country":"China","lat":19.6167,"lon":110.75},{"name":"Wenzhou","country":"China","lat":27.9991,"lon":120.6561},{"name":"Winnipeg","country":"Canada","lat":49.8844,"lon":-97.1464},{"name":"Wroclaw","country":"Poland","lat":51.11,"lon":17.0325},{"name":"Wu'an","country":"China","lat":36.6941,"lon":114.1847},{"name":"Wuchuan","country":"China","lat":21.4283,"lon":110.7749},{"name":"Wugang","country":"China","lat":26.7345,"lon":110.6293},{"name":"Wuhai","country":"China","lat":39.6844,"lon":106.8158},{"name":"Wuhan","country":"China","lat":30.5872,"lon":114.2881},{"name":"Wuhu","country":"China","lat":31.334,"lon":118.3622},{"name":"Wusong","country":"China","lat":30.9333,"lon":117.7667},{"name":"Wuwei","country":"China","lat":37.9278,"lon":102.6329},{"name":"Wuxi","country":"China","lat":31.5667,"lon":120.2833},{"name":"Wuxue","country":"China","lat":29.8518,"lon":115.5539},{"name":"Wuzhong","country":"China","lat":37.9874,"lon":106.1919},{"name":"Wuzhou","country":"China","lat":23.4833,"lon":111.3167},{"name":"Xi'an","country":"China","lat":34.2667,"lon":108.9},{"name":"Xiamen","country":"China","lat":24.4797,"lon":118.0819},{"name":"Xiangshui","country":"China","lat":26.5964,"lon":104.8314},{"name":"Xiangtan","country":"China","lat":27.8431,"lon":112.9228},{"name":"Xiangxiang","country":"China","lat":27.7389,"lon":112.5223},{"name":"Xiangyang","country":"China","lat":32.0654,"lon":112.1531},{"name":"Xiantao","country":"China","lat":30.3833,"lon":113.4},{"name":"Xianyang","country":"China","lat":34.35,"lon":108.7167},{"name":"Xiaoganzhan","country":"China","lat":30.9273,"lon":113.911},{"name":"Xiaoxita","country":"China","lat":30.7083,"lon":111.2803},{"name":"Xibeijie","country":"China","lat":39.737,"lon":98.5049},{"name":"Xichang","country":"China","lat":27.8983,"lon":102.2706},{"name":"Xigaze","country":"China","lat":29.2649,"lon":88.8799},{"name":"Ximeicun","country":"China","lat":24.9633,"lon":118.3811},{"name":"Xin'an","country":"China","lat":34.3662,"lon":118.3369},{"name":"Xindi","country":"China","lat":29.8182,"lon":113.4653},{"name":"Xingcheng","country":"China","lat":24.1681,"lon":115.6669},{"name":"Xingtai","country":"China","lat":37.0659,"lon":114.4753},{"name":"Xingyi","country":"China","lat":25.091,"lon":104.9011},{"name":"Xinhualu","country":"China","lat":34.3962,"lon":113.7249},{"name":"Xining","country":"China","lat":36.6239,"lon":101.7787},{"name":"Xinji","country":"China","lat":37.9423,"lon":115.2118},{"name":"Xinmin","country":"China","lat":41.9952,"lon":122.8224},{"name":"Xinpu","country":"China","lat":34.5906,"lon":119.1801},{"name":"Xinshi","country":"China","lat":31.0236,"lon":113.1079},{"name":"Xintai","country":"China","lat":35.91,"lon":117.78},{"name":"Xinxing","country":"China","lat":39.8734,"lon":124.1453},{"name":"Xinyang","country":"China","lat":32.1264,"lon":114.0672},{"name":"Xinyi","country":"China","lat":22.3559,"lon":110.9369},{"name":"Xinyu","country":"China","lat":27.795,"lon":114.9242},{"name":"Xinzhou","country":"China","lat":38.4178,"lon":112.7233},{"name":"Xiping","country":"China","lat":40.082,"lon":113.2981},{"name":"Xishan","country":"China","lat":27.6609,"lon":113.4946},{"name":"Xiulin","country":"China","lat":29.7211,"lon":112.4037},{"name":"Xuanzhou","country":"China","lat":30.9475,"lon":118.7518},{"name":"Yan'an","country":"China","lat":36.5952,"lon":109.4863},{"name":"Yancheng","country":"China","lat":33.3936,"lon":120.1339},{"name":"Yangchun","country":"China","lat":22.1717,"lon":111.7846},{"name":"Yanggok","country":"South Korea","lat":37.6367,"lon":127.2142},{"name":"Yangjiang","country":"China","lat":21.8556,"lon":111.9627},{"name":"Yangquan","country":"China","lat":37.8576,"lon":113.5762},{"name":"Yangshe","country":"China","lat":31.8775,"lon":120.5512},{"name":"Yangzhou","country":"China","lat":32.3912,"lon":119.4363},{"name":"Yanji","country":"China","lat":42.9044,"lon":129.5067},{"name":"Yanjiang","country":"China","lat":30.1256,"lon":104.6397},{"name":"Yantai","country":"China","lat":37.3997,"lon":121.2664},{"name":"Yaounde","country":"Cameroon","lat":3.8578,"lon":11.5181},{"name":"Yaroslavl","country":"Russia","lat":57.6167,"lon":39.85},{"name":"Yatou","country":"China","lat":37.1653,"lon":122.4867},{"name":"Yekaterinburg","country":"Russia","lat":56.8356,"lon":60.6128},{"name":"Yerevan","country":"Armenia","lat":40.1814,"lon":44.5144},{"name":"Yibin","country":"China","lat":28.7596,"lon":104.64},{"name":"Yicheng","country":"China","lat":31.3697,"lon":119.8239},{"name":"Yichun","country":"China","lat":27.8041,"lon":114.383},{"name":"Yinchuan","country":"China","lat":38.4795,"lon":106.2254},{"name":"Yingcheng","country":"China","lat":24.1878,"lon":113.4042},{"name":"Yingchuan","country":"China","lat":34.1511,"lon":113.4733},{"name":"Yingkou","country":"China","lat":40.6653,"lon":122.2297},{"name":"Yingtan","country":"China","lat":28.2333,"lon":117.0},{"name":"Yiwu","country":"China","lat":29.3081,"lon":120.0698},{"name":"Yiyang","country":"China","lat":28.5833,"lon":112.3333},{"name":"Yokohama","country":"Japan","lat":35.4333,"lon":139.6333},{"name":"Yongcheng","country":"China","lat":33.9317,"lon":116.4459},{"name":"Yongzhou","country":"China","lat":26.4515,"lon":111.5953},{"name":"Yucheng","country":"China","lat":29.9888,"lon":103.0007},{"name":"Yuci","country":"China","lat":37.6823,"lon":112.7281},{"name":"Yulin","country":"China","lat":22.6293,"lon":110.1507},{"name":"Yulinshi","country":"China","lat":38.2655,"lon":109.7388},{"name":"Yuncheng","country":"China","lat":35.0304,"lon":110.998},{"name":"Yunfu","country":"China","lat":22.9242,"lon":112.0353},{"name":"Yushan","country":"China","lat":31.3867,"lon":120.9766},{"name":"Yushu","country":"China","lat":44.8249,"lon":126.5451},{"name":"Yutan","country":"China","lat":28.3147,"lon":112.554},{"name":"Yuxi","country":"China","lat":24.3495,"lon":102.5432},{"name":"Zagreb","country":"Croatia","lat":45.8131,"lon":15.9772},{"name":"Zahedan","country":"Iran","lat":29.4833,"lon":60.8667},{"name":"Zamboanga City","country":"Philippines","lat":6.9167,"lon":122.0833},{"name":"Zaoyang","country":"China","lat":32.1287,"lon":112.7581},{"name":"Zaozhuang","country":"China","lat":34.8667,"lon":117.55},{"name":"Zapopan","country":"Mexico","lat":20.7167,"lon":-103.4},{"name":"Zaporizhzhia","country":"Ukraine","lat":47.8378,"lon":35.1383},{"name":"Zaragoza","country":"Spain","lat":41.65,"lon":-0.8833},{"name":"Zhangjiajie","country":"China","lat":29.1255,"lon":110.4844},{"name":"Zhangjiakou","country":"China","lat":40.8108,"lon":114.8811},{"name":"Zhangshu","country":"China","lat":28.0667,"lon":115.5375},{"name":"Zhangye","country":"China","lat":38.9355,"lon":100.4553},{"name":"Zhangzhou","country":"China","lat":24.5093,"lon":117.6612},{"name":"Zhanjiang","country":"China","lat":21.1967,"lon":110.4031},{"name":"Zhaodong","country":"China","lat":46.0635,"lon":125.9773},{"name":"Zhaoqing","country":"China","lat":23.05,"lon":112.4667},{"name":"Zhaotong","country":"China","lat":27.3328,"lon":103.7144},{"name":"Zhengzhou","country":"China","lat":34.7492,"lon":113.6605},{"name":"Zhenjiang","country":"China","lat":32.2109,"lon":119.4551},{"name":"Zhenzhou","country":"China","lat":32.2739,"lon":119.1619},{"name":"Zhongba","country":"China","lat":31.7761,"lon":104.7406},{"name":"Zhongli","country":"Taiwan","lat":24.965,"lon":121.2168},{"name":"Zhongshan","country":"China","lat":22.5333,"lon":113.35},{"name":"Zhongshu","country":"China","lat":27.8116,"lon":106.4133},{"name":"Zhongwei","country":"China","lat":37.5139,"lon":105.1884},{"name":"Zhongxiang","country":"China","lat":31.169,"lon":112.5853},{"name":"Zhoukou","country":"China","lat":33.625,"lon":114.6418},{"name":"Zhoushan","country":"China","lat":29.9887,"lon":122.2049},{"name":"Zhuanghe","country":"China","lat":39.6896,"lon":122.9664},{"name":"Zhuangyuan","country":"China","lat":37.3056,"lon":120.8275},{"name":"Zhufeng","country":"China","lat":36.0,"lon":119.4167},{"name":"Zhuhai","country":"China","lat":22.2769,"lon":113.5678},{"name":"Zhumadian","country":"China","lat":32.9773,"lon":114.0253},{"name":"Zhuozhou","country":"China","lat":39.4887,"lon":115.9918},{"name":"Zhuzhou","country":"China","lat":27.8407,"lon":113.1469},{"name":"Zibo","country":"China","lat":36.7831,"lon":118.0497},{"name":"Zigong","country":"China","lat":29.3498,"lon":104.7645},{"name":"Zijinglu","country":"China","lat":34.7513,"lon":112.9854},{"name":"Zouping","country":"China","lat":36.8625,"lon":117.7424},{"name":"Zunhua","country":"China","lat":40.1881,"lon":117.9593},{"name":"Zunyi","country":"China","lat":27.705,"lon":106.9336}]
